{
"type": "FeatureCollection",
"crs": { "type": "name", "properties": { "name": "urn:ogc:def:crs:OGC:1.3:CRS84" } },
"features": [
{ "type": "Feature", "properties": { "id": "chiese_italia.2924", "denominazi": "Madonna del Carmine", "cod_cei": "6$R", "sercd": 13191, "pvcc": "Agra", "ldct": "chiesa", "schedasint": 0, "ldcq": "sussidiaria", "pvci": "Via Marconi" }, "geometry": { "type": "Point", "coordinates": [ 8.76931, 46.03755 ] } },
{ "type": "Feature", "properties": { "id": "chiese_italia.2925", "denominazi": "S. Anna (o Madonna del Prato)", "cod_cei": "6$R", "sercd": 13192, "pvcc": "Agra", "ldct": "chiesa", "schedasint": 0, "ldcq": "sussidiaria", "pvci": "Via della Madonna" }, "geometry": { "type": "Point", "coordinates": [ 8.76752, 46.03346 ] } },
{ "type": "Feature", "properties": { "id": "chiese_italia.2926", "denominazi": "Maria Madre della Chiesa-S. Giuseppe Pat. d.Chiesa", "cod_cei": "6$R", "sercd": 13193, "pvcc": "Agra", "ldct": "chiesa", "schedasint": 0, "ldcq": "sussidiaria", "pvci": "Via della Chiesa" }, "geometry": { "type": "Point", "coordinates": [ 8.77123, 46.03731 ] } },
{ "type": "Feature", "properties": { "id": "chiese_italia.2927", "denominazi": "S. Eusebio V. e M.", "cod_cei": "6$R", "sercd": 13194, "pvcc": "Agra", "ldct": "chiesa", "schedasint": 0, "ldcq": "parrocchiale", "pvci": "Via A.Croci" }, "geometry": { "type": "Point", "coordinates": [ 8.77551, 46.03375 ] } },
{ "type": "Feature", "properties": { "id": "chiese_italia.2928", "denominazi": "Madonna della Lupera", "cod_cei": "6$R", "sercd": 13195, "pvcc": "Agra", "ldct": "chiesa", "schedasint": 0, "ldcq": "sussidiaria", "pvci": "Via della Madonna" }, "geometry": { "type": "Point", "coordinates": [ 8.76753, 46.03346 ] } },
{ "type": "Feature", "properties": { "id": "chiese_italia.2949", "denominazi": "S. Margherita", "cod_cei": "6$Z", "sercd": 13218, "pvcc": "Albese con Cassano", "ldct": "chiesa", "schedasint": 0, "ldcq": "parrocchiale", "pvci": "Via Vittorio Veneto 2" }, "geometry": { "type": "Point", "coordinates": [ 9.16611, 45.79683 ] } },
{ "type": "Feature", "properties": { "id": "chiese_italia.2950", "denominazi": "S. Pietro Apostolo", "cod_cei": "6$Z", "sercd": 13219, "pvcc": "Albese con Cassano", "ldct": "chiesa", "schedasint": 0, "ldcq": "sussidiaria", "pvci": "Via Roma 110" }, "geometry": { "type": "Point", "coordinates": [ 9.15547, 45.79906 ] } },
{ "type": "Feature", "properties": { "id": "chiese_italia.3011", "denominazi": "S. Martino", "cod_cei": "6@K", "sercd": 13297, "pvcc": "Barasso", "ldct": "chiesa", "schedasint": 0, "ldcq": "parrocchiale", "pvci": "Via S.Martino, 1" }, "geometry": { "type": "Point", "coordinates": [ 8.75667, 45.84019 ] } },
{ "type": "Feature", "properties": { "id": "chiese_italia.3078", "denominazi": "S. Giorgio", "cod_cei": "6#K", "sercd": 13380, "pvcc": "Bodio Lomnago", "ldct": "chiesa", "schedasint": 0, "ldcq": "sussidiaria", "pvci": "Via B.Bai" }, "geometry": { "type": "Point", "coordinates": [ 8.74778, 45.7905 ] } },
{ "type": "Feature", "properties": { "id": "chiese_italia.3079", "denominazi": "Crocifisso", "cod_cei": "6#K", "sercd": 13381, "pvcc": "Bodio Lomnago", "ldct": "chiesa", "schedasint": 0, "ldcq": "sussidiaria", "pvci": "Piazza Comunale Vecchia" }, "geometry": { "type": "Point", "coordinates": [ 8.74779, 45.7905 ] } },
{ "type": "Feature", "properties": { "id": "chiese_italia.3080", "denominazi": "S. Maria Nascente e S. Giorgio", "cod_cei": "6#K", "sercd": 13382, "pvcc": "Bodio Lomnago", "ldct": "chiesa", "schedasint": 0, "ldcq": "parrocchiale", "pvci": "P.zza don Cesare Ossola, 10" }, "geometry": { "type": "Point", "coordinates": [ 8.75111, 45.78928 ] } },
{ "type": "Feature", "properties": { "id": "chiese_italia.3084", "denominazi": "Maria Immacolata (Oratorio Femminile)", "cod_cei": "6#R", "sercd": 13386, "pvcc": "Bollate", "ldct": "chiesa", "schedasint": 0, "ldcq": "sussidiaria", "pvci": "Via Donadeo 2" }, "geometry": { "type": "Point", "coordinates": [ 9.11307, 45.54158 ] } },
{ "type": "Feature", "properties": { "id": "chiese_italia.3085", "denominazi": "S. Maria (Oratorio Maschile)", "cod_cei": "6#P", "sercd": 13387, "pvcc": "Bollate", "ldct": "chiesa", "schedasint": 0, "ldcq": "sussidiaria", "pvci": "Via Archimede 10" }, "geometry": { "type": "Point", "coordinates": [ 9.13883, 45.55864 ] } },
{ "type": "Feature", "properties": { "id": "chiese_italia.3086", "denominazi": "Cappella Suore di S. Antida Thouret (Orat.Femm.)", "cod_cei": "6#R", "sercd": 13388, "pvcc": "Bollate", "ldct": "chiesa", "schedasint": 0, "ldcq": "sussidiaria", "pvci": "Via Donadeo 2" }, "geometry": { "type": "Point", "coordinates": [ 9.11306, 45.54158 ] } },
{ "type": "Feature", "properties": { "id": "chiese_italia.3099", "denominazi": "S. Donnino", "cod_cei": "6-1", "sercd": 13403, "pvcc": "BRISSAGO VALTRAVAGLIA", "ldct": "chiesa", "schedasint": 0, "ldcq": "parrocchiale", "pvci": "Via V.Veneto" }, "geometry": { "type": "Point", "coordinates": [ 8.73918, 45.96322 ] } },
{ "type": "Feature", "properties": { "id": "chiese_italia.3100", "denominazi": "S. Rita al Piano", "cod_cei": "6-1", "sercd": 13404, "pvcc": "BRISSAGO VALTRAVAGLIA", "ldct": "chiesa", "schedasint": 0, "ldcq": "sussidiaria", "pvci": "Via Albostro" }, "geometry": { "type": "Point", "coordinates": [ 8.74976, 45.96189 ] } },
{ "type": "Feature", "properties": { "id": "chiese_italia.3101", "denominazi": "S. Giorgio M.", "cod_cei": "6-2", "sercd": 13405, "pvcc": "BRISSAGO VALTRAVAGLIA", "ldct": "chiesa", "schedasint": 0, "ldcq": "parrocchiale", "pvci": "Via Monte Grappa" }, "geometry": { "type": "Point", "coordinates": [ 8.74494, 45.94842 ] } },
{ "type": "Feature", "properties": { "id": "chiese_italia.3102", "denominazi": "Madonna di Loreto", "cod_cei": "6-1", "sercd": 13406, "pvcc": "BRISSAGO VALTRAVAGLIA", "ldct": "chiesa", "schedasint": 0, "ldcq": "sussidiaria", "pvci": "Via Marliani" }, "geometry": { "type": "Point", "coordinates": [ 8.73972, 45.95381 ] } },
{ "type": "Feature", "properties": { "id": "chiese_italia.3124", "denominazi": "S. Luigi", "cod_cei": "6-R", "sercd": 13428, "pvcc": "Busto Arsizio", "ldct": "chiesa", "schedasint": 0, "ldcq": "parrocchiale", "pvci": "Piazza Beata Giuliana, 2" }, "geometry": { "type": "Point", "coordinates": [ 8.82956, 45.63106 ] } },
{ "type": "Feature", "properties": { "id": "chiese_italia.3125", "denominazi": "S. Gregorio", "cod_cei": "6-P", "sercd": 13429, "pvcc": "Busto Arsizio", "ldct": "chiesa", "schedasint": 0, "ldcq": "sussidiaria", "pvci": "Via G.Mazzini" }, "geometry": { "type": "Point", "coordinates": [ 8.85006, 45.60956 ] } },
{ "type": "Feature", "properties": { "id": "chiese_italia.3126", "denominazi": "S. Luigi Gonzaga (Oratorio Maschile)", "cod_cei": "6-V", "sercd": 13430, "pvcc": "Busto Arsizio", "ldct": "chiesa", "schedasint": 0, "ldcq": "sussidiaria", "pvci": "Via S.Pietro" }, "geometry": { "type": "Point", "coordinates": [ 8.85553, 45.58675 ] } },
{ "type": "Feature", "properties": { "id": "chiese_italia.3127", "denominazi": "S. Antonio da Padova", "cod_cei": "6-V", "sercd": 13431, "pvcc": "Busto Arsizio", "ldct": "chiesa", "schedasint": 0, "ldcq": "sussidiaria", "pvci": "Via Card. Simone" }, "geometry": { "type": "Point", "coordinates": [ 8.85633, 45.58811 ] } },
{ "type": "Feature", "properties": { "id": "chiese_italia.3128", "denominazi": "S. Giovanni Battista", "cod_cei": "6-P", "sercd": 13432, "pvcc": "Busto Arsizio", "ldct": "chiesa", "schedasint": 0, "ldcq": "parrocchiale", "pvci": "Piazza S.Giovanni" }, "geometry": { "type": "Point", "coordinates": [ 8.85208, 45.61253 ] } },
{ "type": "Feature", "properties": { "id": "chiese_italia.3129", "denominazi": "S. Maria Regina", "cod_cei": "6-S", "sercd": 13433, "pvcc": "Busto Arsizio", "ldct": "chiesa", "schedasint": 0, "ldcq": "parrocchiale", "pvci": "Via Favana" }, "geometry": { "type": "Point", "coordinates": [ 8.81727, 45.60939 ] } },
{ "type": "Feature", "properties": { "id": "chiese_italia.3130", "denominazi": "Santi App.Pietro e Paolo", "cod_cei": "6-V", "sercd": 13434, "pvcc": "Busto Arsizio", "ldct": "chiesa", "schedasint": 0, "ldcq": "parrocchiale", "pvci": "P.zza D.A. Gallarani" }, "geometry": { "type": "Point", "coordinates": [ 8.85646, 45.58581 ] } },
{ "type": "Feature", "properties": { "id": "chiese_italia.3131", "denominazi": "Battistero S. Filippo Neri", "cod_cei": "6-P", "sercd": 13435, "pvcc": "Busto Arsizio", "ldct": "chiesa", "schedasint": 0, "ldcq": "sussidiaria", "pvci": "Piazza S.Giovanni" }, "geometry": { "type": "Point", "coordinates": [ 8.85449, 45.61658 ] } },
{ "type": "Feature", "properties": { "id": "chiese_italia.3132", "denominazi": "S. Bernardino", "cod_cei": "6-R", "sercd": 13436, "pvcc": "Busto Arsizio", "ldct": "chiesa", "schedasint": 0, "ldcq": "sussidiaria", "pvci": "Cascina dei Poveri" }, "geometry": { "type": "Point", "coordinates": [ 8.82709, 45.63334 ] } },
{ "type": "Feature", "properties": { "id": "chiese_italia.3133", "denominazi": "S. Michele Arc.", "cod_cei": "6-T", "sercd": 13437, "pvcc": "Busto Arsizio", "ldct": "chiesa", "schedasint": 0, "ldcq": "parrocchiale", "pvci": "Piazza S.Michele" }, "geometry": { "type": "Point", "coordinates": [ 8.84597, 45.6125 ] } },
{ "type": "Feature", "properties": { "id": "chiese_italia.3134", "denominazi": "S. Rocco", "cod_cei": "6-T", "sercd": 13438, "pvcc": "Busto Arsizio", "ldct": "chiesa", "schedasint": 0, "ldcq": "sussidiaria", "pvci": "Via Giuseppe Lualdi" }, "geometry": { "type": "Point", "coordinates": [ 8.84752, 45.61086 ] } },
{ "type": "Feature", "properties": { "id": "chiese_italia.3135", "denominazi": "Immacolata Concezione (o Madonna in Prato)", "cod_cei": "6-T", "sercd": 13439, "pvcc": "Busto Arsizio", "ldct": "chiesa", "schedasint": 0, "ldcq": "sussidiaria", "pvci": "Piazza Alessandro Manzoni" }, "geometry": { "type": "Point", "coordinates": [ 8.84598, 45.61081 ] } },
{ "type": "Feature", "properties": { "id": "chiese_italia.3136", "denominazi": "S. Maria Assunta (o S. Maria di Piazza)", "cod_cei": "6-P", "sercd": 13440, "pvcc": "Busto Arsizio", "ldct": "chiesa", "schedasint": 0, "ldcq": "sussidiaria", "pvci": "Piazza S.Maria" }, "geometry": { "type": "Point", "coordinates": [ 8.85044, 45.61156 ] } },
{ "type": "Feature", "properties": { "id": "chiese_italia.3137", "denominazi": "S. Luigi Gonzaga (Oratorio Maschile)", "cod_cei": "6-P", "sercd": 13441, "pvcc": "Busto Arsizio", "ldct": "chiesa", "schedasint": 0, "ldcq": "sussidiaria", "pvci": "Via Gerolamo Miani" }, "geometry": { "type": "Point", "coordinates": [ 8.85342, 45.61528 ] } },
{ "type": "Feature", "properties": { "id": "chiese_italia.3138", "denominazi": "S. Carlo Borromeo", "cod_cei": "6-T", "sercd": 13442, "pvcc": "Busto Arsizio", "ldct": "chiesa", "schedasint": 0, "ldcq": "sussidiaria", "pvci": "Via Taormina" }, "geometry": { "type": "Point", "coordinates": [ 8.8383, 45.60658 ] } },
{ "type": "Feature", "properties": { "id": "chiese_italia.3139", "denominazi": "Santa Croce", "cod_cei": "6-P", "sercd": 13443, "pvcc": "Busto Arsizio", "ldct": "chiesa", "schedasint": 0, "ldcq": "sussidiaria", "pvci": "Via Santa Croce" }, "geometry": { "type": "Point", "coordinates": [ 8.85113, 45.61239 ] } },
{ "type": "Feature", "properties": { "id": "chiese_italia.3140", "denominazi": "Santi App.Pietro e Paolo (ex Chiesa Parr.)", "cod_cei": "6-X", "sercd": 13444, "pvcc": "Busto Arsizio", "ldct": "chiesa", "schedasint": 0, "ldcq": "sussidiaria", "pvci": "Piazza Chiesa" }, "geometry": { "type": "Point", "coordinates": [ 8.85942, 45.60919 ] } },
{ "type": "Feature", "properties": { "id": "chiese_italia.3141", "denominazi": "B.V.Maria dei Sette Dolori (o Madonna in Campagna)", "cod_cei": "6-X", "sercd": 13445, "pvcc": "Busto Arsizio", "ldct": "chiesa", "schedasint": 0, "ldcq": "sussidiaria", "pvci": "Via Madonna in Campagna" }, "geometry": { "type": "Point", "coordinates": [ 8.83516, 45.59694 ] } },
{ "type": "Feature", "properties": { "id": "chiese_italia.3142", "denominazi": "Santi App.Pietro e Paolo", "cod_cei": "6-W", "sercd": 13446, "pvcc": "Busto Arsizio", "ldct": "chiesa", "schedasint": 0, "ldcq": "parrocchiale", "pvci": "Piazza Don Paolo Cairoli" }, "geometry": { "type": "Point", "coordinates": [ 8.86213, 45.61972 ] } },
{ "type": "Feature", "properties": { "id": "chiese_italia.3143", "denominazi": "S. Anna", "cod_cei": "6-M", "sercd": 13447, "pvcc": "Busto Arsizio", "ldct": "chiesa", "schedasint": 0, "ldcq": "parrocchiale", "pvci": "Piazza S.Anna" }, "geometry": { "type": "Point", "coordinates": [ 8.84455, 45.63289 ] } },
{ "type": "Feature", "properties": { "id": "chiese_italia.3144", "denominazi": "Edicola S. Maria Nascente", "cod_cei": "6-P", "sercd": 13448, "pvcc": "Busto Arsizio", "ldct": "chiesa", "schedasint": 0, "ldcq": "sussidiaria", "pvci": "Via Daniele Crespi" }, "geometry": { "type": "Point", "coordinates": [ 8.85472, 45.61169 ] } },
{ "type": "Feature", "properties": { "id": "chiese_italia.3171", "denominazi": "S. Antonio di Padova", "cod_cei": "6#N", "sercd": 13479, "pvcc": "Bollate", "ldct": "chiesa", "schedasint": 0, "ldcq": "parrocchiale", "pvci": "Via Battisti" }, "geometry": { "type": "Point", "coordinates": [ 9.14192, 45.54708 ] } },
{ "type": "Feature", "properties": { "id": "chiese_italia.3172", "denominazi": "S. Bernardo", "cod_cei": "6#P", "sercd": 13480, "pvcc": "Bollate", "ldct": "chiesa", "schedasint": 0, "ldcq": "parrocchiale", "pvci": "Via Madonne 6" }, "geometry": { "type": "Point", "coordinates": [ 9.14032, 45.55956 ] } },
{ "type": "Feature", "properties": { "id": "chiese_italia.3173", "denominazi": "S. Guglielmo", "cod_cei": "6#Q", "sercd": 13481, "pvcc": "Bollate", "ldct": "chiesa", "schedasint": 0, "ldcq": "parrocchiale", "pvci": "Via Fametta 2" }, "geometry": { "type": "Point", "coordinates": [ 9.09445, 45.56272 ] } },
{ "type": "Feature", "properties": { "id": "chiese_italia.3174", "denominazi": "S. Monica", "cod_cei": "6#S", "sercd": 13482, "pvcc": "Bollate", "ldct": "chiesa", "schedasint": 0, "ldcq": "parrocchiale", "pvci": "Via Fornace Mariani" }, "geometry": { "type": "Point", "coordinates": [ 9.09953, 45.53944 ] } },
{ "type": "Feature", "properties": { "id": "chiese_italia.3175", "denominazi": "Nostra Signora della Misericordia", "cod_cei": "6#M", "sercd": 13483, "pvcc": "Bollate", "ldct": "chiesa", "schedasint": 0, "ldcq": "parrocchiale", "pvci": "Via Conciliazione 22" }, "geometry": { "type": "Point", "coordinates": [ 9.1141, 45.52775 ] } },
{ "type": "Feature", "properties": { "id": "chiese_italia.3176", "denominazi": "S. Arialdo", "cod_cei": "6#O", "sercd": 13484, "pvcc": "Bollate", "ldct": "chiesa", "schedasint": 0, "ldcq": "parrocchiale", "pvci": "Via Merano 6" }, "geometry": { "type": "Point", "coordinates": [ 9.11828, 45.52328 ] } },
{ "type": "Feature", "properties": { "id": "chiese_italia.3177", "denominazi": "S. Martino", "cod_cei": "6#R", "sercd": 13485, "pvcc": "Bollate", "ldct": "chiesa", "schedasint": 0, "ldcq": "parrocchiale", "pvci": "Piazza della Chiesa 3" }, "geometry": { "type": "Point", "coordinates": [ 9.11749, 45.54292 ] } },
{ "type": "Feature", "properties": { "id": "chiese_italia.3178", "denominazi": "S. Elisabetta (detta Madonna in Campagna)", "cod_cei": "6#R", "sercd": 13486, "pvcc": "Bollate", "ldct": "chiesa", "schedasint": 0, "ldcq": "sussidiaria", "pvci": "Via Madonna in Campagna" }, "geometry": { "type": "Point", "coordinates": [ 9.12222, 45.54733 ] } },
{ "type": "Feature", "properties": { "id": "chiese_italia.3179", "denominazi": "S. Giuseppe", "cod_cei": "6#R", "sercd": 13487, "pvcc": "Bollate", "ldct": "chiesa", "schedasint": 0, "ldcq": "sussidiaria", "pvci": "Piazza Don Carlo Elli" }, "geometry": { "type": "Point", "coordinates": [ 9.1177, 45.54467 ] } },
{ "type": "Feature", "properties": { "id": "chiese_italia.3180", "denominazi": "S. Bernardo (ex Chiesa Parrocch.)", "cod_cei": "6#P", "sercd": 13488, "pvcc": "Bollate", "ldct": "chiesa", "schedasint": 0, "ldcq": "sussidiaria", "pvci": "Via Pace" }, "geometry": { "type": "Point", "coordinates": [ 9.1363, 45.55972 ] } },
{ "type": "Feature", "properties": { "id": "chiese_italia.3181", "denominazi": "S. Giuseppe", "cod_cei": "6#P", "sercd": 13489, "pvcc": "Bollate", "ldct": "chiesa", "schedasint": 0, "ldcq": "sussidiaria", "pvci": "Via Vicenza 9" }, "geometry": { "type": "Point", "coordinates": [ 9.13708, 45.55417 ] } },
{ "type": "Feature", "properties": { "id": "chiese_italia.3189", "denominazi": "S. Salvatore", "cod_cei": "6#@", "sercd": 13497, "pvcc": "Brezzo di Bedero", "ldct": "chiesa", "schedasint": 0, "ldcq": "sussidiaria", "pvci": "Via Trento" }, "geometry": { "type": "Point", "coordinates": [ 8.71356, 45.96947 ] } },
{ "type": "Feature", "properties": { "id": "chiese_italia.3190", "denominazi": "S. Vittore M.", "cod_cei": "6#@", "sercd": 13498, "pvcc": "Brezzo di Bedero", "ldct": "chiesa", "schedasint": 0, "ldcq": "parrocchiale", "pvci": "Via Roma, 4" }, "geometry": { "type": "Point", "coordinates": [ 8.71676, 45.979 ] } },
{ "type": "Feature", "properties": { "id": "chiese_italia.3191", "denominazi": "Santi Rocco e Sebastiano", "cod_cei": "6#@", "sercd": 13499, "pvcc": "Brezzo di Bedero", "ldct": "chiesa", "schedasint": 0, "ldcq": "sussidiaria", "pvci": "Via Roma" }, "geometry": { "type": "Point", "coordinates": [ 8.71874, 45.97861 ] } },
{ "type": "Feature", "properties": { "id": "chiese_italia.3192", "denominazi": "S. Maria Bambina", "cod_cei": "6#@", "sercd": 13500, "pvcc": "Brezzo di Bedero", "ldct": "chiesa", "schedasint": 0, "ldcq": "sussidiaria", "pvci": "" }, "geometry": { "type": "Point", "coordinates": [ 8.7148, 45.97094 ] } },
{ "type": "Feature", "properties": { "id": "chiese_italia.3221", "denominazi": "S. Edoardo Re e Conf.", "cod_cei": "6-O", "sercd": 13531, "pvcc": "Busto Arsizio", "ldct": "chiesa", "schedasint": 0, "ldcq": "parrocchiale", "pvci": "Viale Alfieri" }, "geometry": { "type": "Point", "coordinates": [ 8.85884, 45.60328 ] } },
{ "type": "Feature", "properties": { "id": "chiese_italia.3222", "denominazi": "Santi Angeli Custodi (Oratorio Femminile)", "cod_cei": "6-T", "sercd": 13532, "pvcc": "Busto Arsizio", "ldct": "chiesa", "schedasint": 0, "ldcq": "sussidiaria", "pvci": "Piazza Alessandro Manzoni" }, "geometry": { "type": "Point", "coordinates": [ 8.84597, 45.61081 ] } },
{ "type": "Feature", "properties": { "id": "chiese_italia.3223", "denominazi": "S. Filippo Neri (Oratorio Maschile)", "cod_cei": "6-T", "sercd": 13533, "pvcc": "Busto Arsizio", "ldct": "chiesa", "schedasint": 0, "ldcq": "sussidiaria", "pvci": "Via Don Davide Albertario" }, "geometry": { "type": "Point", "coordinates": [ 8.84612, 45.61608 ] } },
{ "type": "Feature", "properties": { "id": "chiese_italia.3224", "denominazi": "Edicola S. Carlo", "cod_cei": "6-T", "sercd": 13534, "pvcc": "Busto Arsizio", "ldct": "chiesa", "schedasint": 0, "ldcq": "sussidiaria", "pvci": "Via Giacomo Matteotti" }, "geometry": { "type": "Point", "coordinates": [ 8.84797, 45.61211 ] } },
{ "type": "Feature", "properties": { "id": "chiese_italia.3225", "denominazi": "SS. Redentore", "cod_cei": "6-Y", "sercd": 13535, "pvcc": "Busto Arsizio", "ldct": "chiesa", "schedasint": 0, "ldcq": "parrocchiale", "pvci": "Via Tommaso Rodari" }, "geometry": { "type": "Point", "coordinates": [ 8.82998, 45.61864 ] } },
{ "type": "Feature", "properties": { "id": "chiese_italia.3226", "denominazi": "Annunciazione (o Madonna in Veroncora)", "cod_cei": "6-Y", "sercd": 13536, "pvcc": "Busto Arsizio", "ldct": "chiesa", "schedasint": 0, "ldcq": "sussidiaria", "pvci": "Via Vespri Siciliani" }, "geometry": { "type": "Point", "coordinates": [ 8.83266, 45.61611 ] } },
{ "type": "Feature", "properties": { "id": "chiese_italia.3227", "denominazi": "Beata Vergine delle Grazie (o S. Anna)", "cod_cei": "6-P", "sercd": 13537, "pvcc": "Busto Arsizio", "ldct": "chiesa", "schedasint": 0, "ldcq": "sussidiaria", "pvci": "Via Fratelli d'Italia" }, "geometry": { "type": "Point", "coordinates": [ 8.85463, 45.61308 ] } },
{ "type": "Feature", "properties": { "id": "chiese_italia.3228", "denominazi": "S. Antonio Abate", "cod_cei": "6-P", "sercd": 13538, "pvcc": "Busto Arsizio", "ldct": "chiesa", "schedasint": 0, "ldcq": "sussidiaria", "pvci": "Piazza S.Maria" }, "geometry": { "type": "Point", "coordinates": [ 8.85044, 45.61156 ] } },
{ "type": "Feature", "properties": { "id": "chiese_italia.3229", "denominazi": "S. Giovanni Bosco (Oratorio Maschile)", "cod_cei": "6-O", "sercd": 13539, "pvcc": "Busto Arsizio", "ldct": "chiesa", "schedasint": 0, "ldcq": "sussidiaria", "pvci": "Via Bergamo, 12" }, "geometry": { "type": "Point", "coordinates": [ 8.85942, 45.60239 ] } },
{ "type": "Feature", "properties": { "id": "chiese_italia.3230", "denominazi": "Sacro Cuore", "cod_cei": "6-U", "sercd": 13540, "pvcc": "Busto Arsizio", "ldct": "chiesa", "schedasint": 0, "ldcq": "parrocchiale", "pvci": "Piazza Gentile Mora" }, "geometry": { "type": "Point", "coordinates": [ 8.86343, 45.61136 ] } },
{ "type": "Feature", "properties": { "id": "chiese_italia.3231", "denominazi": "Santi App.Pietro e Paolo", "cod_cei": "6-X", "sercd": 13541, "pvcc": "Busto Arsizio", "ldct": "chiesa", "schedasint": 0, "ldcq": "parrocchiale", "pvci": "P.zza Giovanni XXIII" }, "geometry": { "type": "Point", "coordinates": [ 8.8408, 45.59928 ] } },
{ "type": "Feature", "properties": { "id": "chiese_italia.3232", "denominazi": "S. Giuseppe", "cod_cei": "6-Q", "sercd": 13542, "pvcc": "Busto Arsizio", "ldct": "chiesa", "schedasint": 0, "ldcq": "parrocchiale", "pvci": "Viale Stelvio, 2" }, "geometry": { "type": "Point", "coordinates": [ 8.84533, 45.62086 ] } },
{ "type": "Feature", "properties": { "id": "chiese_italia.3233", "denominazi": "S. Croce", "cod_cei": "6-N", "sercd": 13543, "pvcc": "Busto Arsizio", "ldct": "chiesa", "schedasint": 0, "ldcq": "parrocchiale", "pvci": "P.zza D.Volonte'" }, "geometry": { "type": "Point", "coordinates": [ 8.86181, 45.59603 ] } },
{ "type": "Feature", "properties": { "id": "chiese_italia.3343", "denominazi": "S. Giorgio", "cod_cei": "7GN", "sercd": 13659, "pvcc": "Castelveccana", "ldct": "chiesa", "schedasint": 0, "ldcq": "sussidiaria", "pvci": "Via S.Giorgio" }, "geometry": { "type": "Point", "coordinates": [ 8.68927, 45.94792 ] } },
{ "type": "Feature", "properties": { "id": "chiese_italia.3344", "denominazi": "Santi App.Pietro e Paolo", "cod_cei": "71X", "sercd": 13660, "pvcc": "Castelveccana", "ldct": "chiesa", "schedasint": 0, "ldcq": "parrocchiale", "pvci": "Piazza S.Pietro" }, "geometry": { "type": "Point", "coordinates": [ 8.73397, 45.89578 ] } },
{ "type": "Feature", "properties": { "id": "chiese_italia.3345", "denominazi": "S. Antonio", "cod_cei": "71X", "sercd": 13661, "pvcc": "Castelveccana", "ldct": "chiesa", "schedasint": 0, "ldcq": "sussidiaria", "pvci": "Via per Castello" }, "geometry": { "type": "Point", "coordinates": [ 8.68611, 45.94825 ] } },
{ "type": "Feature", "properties": { "id": "chiese_italia.3346", "denominazi": "S. Genesio", "cod_cei": "7GN", "sercd": 13662, "pvcc": "Castelveccana", "ldct": "chiesa", "schedasint": 0, "ldcq": "sussidiaria", "pvci": "Via S.Genesio" }, "geometry": { "type": "Point", "coordinates": [ 8.66456, 45.94589 ] } },
{ "type": "Feature", "properties": { "id": "chiese_italia.3347", "denominazi": "S. Veronica alle Fornaci", "cod_cei": "71X", "sercd": 13663, "pvcc": "Castelveccana", "ldct": "chiesa", "schedasint": 0, "ldcq": "sussidiaria", "pvci": "Via S.Veronica" }, "geometry": { "type": "Point", "coordinates": [ 8.66457, 45.94589 ] } },
{ "type": "Feature", "properties": { "id": "chiese_italia.3385", "denominazi": "Maria SS. Immacolata", "cod_cei": "70X", "sercd": 13703, "pvcc": "Caronno Pertusella", "ldct": "chiesa", "schedasint": 0, "ldcq": "sussidiaria", "pvci": "Via Trieste" }, "geometry": { "type": "Point", "coordinates": [ 9.05936, 45.58969 ] } },
{ "type": "Feature", "properties": { "id": "chiese_italia.3386", "denominazi": "S. Giuseppe", "cod_cei": "70X", "sercd": 13704, "pvcc": "Caronno Pertusella", "ldct": "chiesa", "schedasint": 0, "ldcq": "sussidiaria", "pvci": "Loc.Bariola" }, "geometry": { "type": "Point", "coordinates": [ 9.0604, 45.58158 ] } },
{ "type": "Feature", "properties": { "id": "chiese_italia.3387", "denominazi": "S. Margherita V. e M.", "cod_cei": "70Y", "sercd": 13705, "pvcc": "Caronno Pertusella", "ldct": "chiesa", "schedasint": 0, "ldcq": "parrocchiale", "pvci": "Piazza 11 Febbraio" }, "geometry": { "type": "Point", "coordinates": [ 9.04598, 45.59786 ] } },
{ "type": "Feature", "properties": { "id": "chiese_italia.3388", "denominazi": "Oratorio del Lazzaretto (B.V. del Carmine)", "cod_cei": "70Y", "sercd": 13706, "pvcc": "Caronno Pertusella", "ldct": "chiesa", "schedasint": 0, "ldcq": "sussidiaria", "pvci": "Via Lazzaretto" }, "geometry": { "type": "Point", "coordinates": [ 9.03845, 45.59267 ] } },
{ "type": "Feature", "properties": { "id": "chiese_italia.3389", "denominazi": "S. Alessandro M.", "cod_cei": "70X", "sercd": 13707, "pvcc": "Caronno Pertusella", "ldct": "chiesa", "schedasint": 0, "ldcq": "parrocchiale", "pvci": "Via S.Alessandro" }, "geometry": { "type": "Point", "coordinates": [ 9.05386, 45.59364 ] } },
{ "type": "Feature", "properties": { "id": "chiese_italia.3400", "denominazi": "Santi Agostino, Monica e Giovanni Battista", "cod_cei": "719", "sercd": 13722, "pvcc": "Casciago", "ldct": "chiesa", "schedasint": 0, "ldcq": "parrocchiale", "pvci": "Via Dell'acqua, 6" }, "geometry": { "type": "Point", "coordinates": [ 8.78688, 45.83355 ] } },
{ "type": "Feature", "properties": { "id": "chiese_italia.3401", "denominazi": "S. Antonio Abate e S. Caterina", "cod_cei": "7LF", "sercd": 13723, "pvcc": "Casciago", "ldct": "chiesa", "schedasint": 0, "ldcq": "sussidiaria", "pvci": "Loc. Mustonate" }, "geometry": { "type": "Point", "coordinates": [ 8.76472, 45.82417 ] } },
{ "type": "Feature", "properties": { "id": "chiese_italia.3402", "denominazi": "S. Ambrogio", "cod_cei": "718", "sercd": 13724, "pvcc": "Casciago", "ldct": "chiesa", "schedasint": 0, "ldcq": "parrocchiale", "pvci": "P.zza Giovanni XIII, 2" }, "geometry": { "type": "Point", "coordinates": [ 8.76447, 45.8245 ] } },
{ "type": "Feature", "properties": { "id": "chiese_italia.3432", "denominazi": "S. Antonio sul Monte", "cod_cei": "71W", "sercd": 13757, "pvcc": "Castelveccana", "ldct": "chiesa", "schedasint": 0, "ldcq": "sussidiaria", "pvci": "Strada per S. Antonio" }, "geometry": { "type": "Point", "coordinates": [ 8.69142, 45.95456 ] } },
{ "type": "Feature", "properties": { "id": "chiese_italia.3433", "denominazi": "S. Rocco", "cod_cei": "71X", "sercd": 13758, "pvcc": "Castelveccana", "ldct": "chiesa", "schedasint": 0, "ldcq": "sussidiaria", "pvci": "Via Cavallotti" }, "geometry": { "type": "Point", "coordinates": [ 8.67522, 45.95319 ] } },
{ "type": "Feature", "properties": { "id": "chiese_italia.3434", "denominazi": "Maria SS. Immacolata", "cod_cei": "71W", "sercd": 13759, "pvcc": "Castelveccana", "ldct": "chiesa", "schedasint": 0, "ldcq": "parrocchiale", "pvci": "Via Pasubio" }, "geometry": { "type": "Point", "coordinates": [ 8.73398, 45.89578 ] } },
{ "type": "Feature", "properties": { "id": "chiese_italia.3452", "denominazi": "S. Carlo", "cod_cei": "71-", "sercd": 13779, "pvcc": "Cazzago Brabbia", "ldct": "chiesa", "schedasint": 0, "ldcq": "parrocchiale", "pvci": "Piazza Vittorio Emanuele" }, "geometry": { "type": "Point", "coordinates": [ 8.73091, 45.79778 ] } },
{ "type": "Feature", "properties": { "id": "chiese_italia.3475", "denominazi": "S. Cuore Immacolato di Maria", "cod_cei": "72S", "sercd": 13803, "pvcc": "Cislago", "ldct": "chiesa", "schedasint": 0, "ldcq": "sussidiaria", "pvci": "Cascina Visconta" }, "geometry": { "type": "Point", "coordinates": [ 8.974, 45.66081 ] } },
{ "type": "Feature", "properties": { "id": "chiese_italia.3476", "denominazi": "S. Maria Assunta", "cod_cei": "72S", "sercd": 13804, "pvcc": "Cislago", "ldct": "chiesa", "schedasint": 0, "ldcq": "parrocchiale", "pvci": "Via Toti 102" }, "geometry": { "type": "Point", "coordinates": [ 8.97268, 45.65992 ] } },
{ "type": "Feature", "properties": { "id": "chiese_italia.3477", "denominazi": "S. Giulio alla Massina", "cod_cei": "72S", "sercd": 13805, "pvcc": "Cislago", "ldct": "chiesa", "schedasint": 0, "ldcq": "sussidiaria", "pvci": "Piazza Manzoni" }, "geometry": { "type": "Point", "coordinates": [ 8.97268, 45.64367 ] } },
{ "type": "Feature", "properties": { "id": "chiese_italia.3478", "denominazi": "S. Maria della Neve", "cod_cei": "72S", "sercd": 13806, "pvcc": "Cislago", "ldct": "chiesa", "schedasint": 0, "ldcq": "sussidiaria", "pvci": "Via Magenta\/Via S.Maria" }, "geometry": { "type": "Point", "coordinates": [ 8.97014, 45.65411 ] } },
{ "type": "Feature", "properties": { "id": "chiese_italia.3500", "denominazi": "Santi Ippolito e Cassiano", "cod_cei": "738", "sercd": 13829, "pvcc": "Comerio", "ldct": "chiesa", "schedasint": 0, "ldcq": "parrocchiale", "pvci": "Via Chiesa, 4" }, "geometry": { "type": "Point", "coordinates": [ 8.745, 45.8405 ] } },
{ "type": "Feature", "properties": { "id": "chiese_italia.3501", "denominazi": "S. Celso", "cod_cei": "738", "sercd": 13830, "pvcc": "Comerio", "ldct": "chiesa", "schedasint": 0, "ldcq": "sussidiaria", "pvci": "Via S.Celso" }, "geometry": { "type": "Point", "coordinates": [ 8.74691, 45.84153 ] } },
{ "type": "Feature", "properties": { "id": "chiese_italia.3555", "denominazi": "Beata Vergine delle Grazie (detta del Latte)", "cod_cei": "72J", "sercd": 13890, "pvcc": "Cesate", "ldct": "chiesa", "schedasint": 0, "ldcq": "sussidiaria", "pvci": "Piazza 4 Novembre" }, "geometry": { "type": "Point", "coordinates": [ 9.07816, 45.59719 ] } },
{ "type": "Feature", "properties": { "id": "chiese_italia.3556", "denominazi": "S. Francesco d'Assisi", "cod_cei": "72I", "sercd": 13891, "pvcc": "Cesate", "ldct": "chiesa", "schedasint": 0, "ldcq": "parrocchiale", "pvci": "Via Concordia 6" }, "geometry": { "type": "Point", "coordinates": [ 9.06965, 45.59022 ] } },
{ "type": "Feature", "properties": { "id": "chiese_italia.3557", "denominazi": "Santi Alessandro e Martino", "cod_cei": "72J", "sercd": 13892, "pvcc": "Cesate", "ldct": "chiesa", "schedasint": 0, "ldcq": "parrocchiale", "pvci": "Via Romano'" }, "geometry": { "type": "Point", "coordinates": [ 9.07804, 45.59528 ] } },
{ "type": "Feature", "properties": { "id": "chiese_italia.3646", "denominazi": "Santa Maria Immacolata", "cod_cei": "74D", "sercd": 14000, "pvcc": "Dumenza", "ldct": "chiesa", "schedasint": 0, "ldcq": "sussidiaria", "pvci": "Via S.Angela Merici 2" }, "geometry": { "type": "Point", "coordinates": [ 8.78837, 46.01937 ] } },
{ "type": "Feature", "properties": { "id": "chiese_italia.3647", "denominazi": "Santi Nazaro e Celso", "cod_cei": "74D", "sercd": 14001, "pvcc": "Dumenza", "ldct": "chiesa", "schedasint": 0, "ldcq": "sussidiaria", "pvci": "Via Rimembranze 7" }, "geometry": { "type": "Point", "coordinates": [ 8.7864, 46.0165 ] } },
{ "type": "Feature", "properties": { "id": "chiese_italia.3648", "denominazi": "Beata Vergine di Trezzo", "cod_cei": "74D", "sercd": 14002, "pvcc": "Dumenza", "ldct": "chiesa", "schedasint": 0, "ldcq": "sussidiaria", "pvci": "Via Santuario,6" }, "geometry": { "type": "Point", "coordinates": [ 8.78777, 46.01852 ] } },
{ "type": "Feature", "properties": { "id": "chiese_italia.3649", "denominazi": "S. Giorgio", "cod_cei": "74D", "sercd": 14003, "pvcc": "Dumenza", "ldct": "chiesa", "schedasint": 0, "ldcq": "parrocchiale", "pvci": "Via Oberdan, 11" }, "geometry": { "type": "Point", "coordinates": [ 8.78568, 46.02593 ] } },
{ "type": "Feature", "properties": { "id": "chiese_italia.3650", "denominazi": "S. Elisabetta", "cod_cei": "74C", "sercd": 14004, "pvcc": "Dumenza", "ldct": "chiesa", "schedasint": 0, "ldcq": "parrocchiale", "pvci": "P.zza S.Elisabetta" }, "geometry": { "type": "Point", "coordinates": [ 8.7792, 46.03571 ] } },
{ "type": "Feature", "properties": { "id": "chiese_italia.3687", "denominazi": "Santi Gervaso e Protaso", "cod_cei": "758", "sercd": 14049, "pvcc": "Galliate Lombardo", "ldct": "chiesa", "schedasint": 0, "ldcq": "parrocchiale", "pvci": "Via Parrocchiale 12" }, "geometry": { "type": "Point", "coordinates": [ 8.77157, 45.78596 ] } },
{ "type": "Feature", "properties": { "id": "chiese_italia.3688", "denominazi": "Santi Eusebio e Maccabei", "cod_cei": "75C", "sercd": 14050, "pvcc": "Garbagnate Milanese", "ldct": "chiesa", "schedasint": 0, "ldcq": "parrocchiale", "pvci": "Via Gran Sasso 12" }, "geometry": { "type": "Point", "coordinates": [ 9.07799, 45.57456 ] } },
{ "type": "Feature", "properties": { "id": "chiese_italia.3689", "denominazi": "B. Alfredo Ildefonso Schuster", "cod_cei": "75B", "sercd": 14051, "pvcc": "Garbagnate Milanese", "ldct": "chiesa", "schedasint": 0, "ldcq": "parrocchiale", "pvci": "Via Pasubio, 3" }, "geometry": { "type": "Point", "coordinates": [ 9.072, 45.56539 ] } },
{ "type": "Feature", "properties": { "id": "chiese_italia.3690", "denominazi": "S. Maria Nascente", "cod_cei": "75B", "sercd": 14052, "pvcc": "Garbagnate Milanese", "ldct": "chiesa", "schedasint": 0, "ldcq": "sussidiaria", "pvci": "Via Garibaldi" }, "geometry": { "type": "Point", "coordinates": [ 9.08048, 45.56147 ] } },
{ "type": "Feature", "properties": { "id": "chiese_italia.3691", "denominazi": "S. Giovanni Battista", "cod_cei": "759", "sercd": 14053, "pvcc": "Garbagnate Milanese", "ldct": "chiesa", "schedasint": 0, "ldcq": "parrocchiale", "pvci": "Via Fametta 3" }, "geometry": { "type": "Point", "coordinates": [ 9.0863, 45.56841 ] } },
{ "type": "Feature", "properties": { "id": "chiese_italia.3692", "denominazi": "S. Giuseppe Artigiano", "cod_cei": "75A", "sercd": 14054, "pvcc": "Garbagnate Milanese", "ldct": "chiesa", "schedasint": 0, "ldcq": "parrocchiale", "pvci": "Piazza C.Pizzi" }, "geometry": { "type": "Point", "coordinates": [ 9.0778, 45.57519 ] } },
{ "type": "Feature", "properties": { "id": "chiese_italia.3693", "denominazi": "Madonna del Rosario", "cod_cei": "75C", "sercd": 14055, "pvcc": "Garbagnate Milanese", "ldct": "chiesa", "schedasint": 0, "ldcq": "sussidiaria", "pvci": "Piazza del Santuario 54" }, "geometry": { "type": "Point", "coordinates": [ 9.08012, 45.57883 ] } },
{ "type": "Feature", "properties": { "id": "chiese_italia.3694", "denominazi": "B.V. Maria, S. Antonio Abate e S. Eusebio", "cod_cei": "75C", "sercd": 14056, "pvcc": "Garbagnate Milanese", "ldct": "chiesa", "schedasint": 0, "ldcq": "sussidiaria", "pvci": "Via Gran Sasso Ang.Via Varese" }, "geometry": { "type": "Point", "coordinates": [ 9.07387, 45.57553 ] } },
{ "type": "Feature", "properties": { "id": "chiese_italia.3699", "denominazi": "S. Giacomo Maggiore", "cod_cei": "75K", "sercd": 14061, "pvcc": "Gerenzano", "ldct": "chiesa", "schedasint": 0, "ldcq": "sussidiaria", "pvci": "Via S.Giacomo" }, "geometry": { "type": "Point", "coordinates": [ 9.00217, 45.63452 ] } },
{ "type": "Feature", "properties": { "id": "chiese_italia.3700", "denominazi": "S. Filippo Neri (Oratorio)", "cod_cei": "75K", "sercd": 14062, "pvcc": "Gerenzano", "ldct": "chiesa", "schedasint": 0, "ldcq": "sussidiaria", "pvci": "Via Oratorio" }, "geometry": { "type": "Point", "coordinates": [ 8.98745, 45.68072 ] } },
{ "type": "Feature", "properties": { "id": "chiese_italia.3701", "denominazi": "Santi App.Pietro e Paolo", "cod_cei": "75K", "sercd": 14063, "pvcc": "Gerenzano", "ldct": "chiesa", "schedasint": 0, "ldcq": "parrocchiale", "pvci": "" }, "geometry": { "type": "Point", "coordinates": [ 9.00221, 45.64061 ] } },
{ "type": "Feature", "properties": { "id": "chiese_italia.3702", "denominazi": "S. Veronica (Oratorio-Opere Parrocch.)", "cod_cei": "75L", "sercd": 14064, "pvcc": "Germignaga", "ldct": "chiesa", "schedasint": 0, "ldcq": "sussidiaria", "pvci": "Via Mameli 38" }, "geometry": { "type": "Point", "coordinates": [ 8.72558, 45.99561 ] } },
{ "type": "Feature", "properties": { "id": "chiese_italia.3703", "denominazi": "S. Giovanni Battista", "cod_cei": "75L", "sercd": 14065, "pvcc": "Germignaga", "ldct": "chiesa", "schedasint": 0, "ldcq": "parrocchiale", "pvci": "Via Toti 1" }, "geometry": { "type": "Point", "coordinates": [ 8.72411, 45.99236 ] } },
{ "type": "Feature", "properties": { "id": "chiese_italia.3704", "denominazi": "S. Giovanni Battista", "cod_cei": "75L", "sercd": 14066, "pvcc": "Germignaga", "ldct": "chiesa", "schedasint": 0, "ldcq": "sussidiaria", "pvci": "Via S.Giovanni" }, "geometry": { "type": "Point", "coordinates": [ 8.74553, 46.00162 ] } },
{ "type": "Feature", "properties": { "id": "chiese_italia.3705", "denominazi": "S. Carlo", "cod_cei": "75L", "sercd": 14067, "pvcc": "Germignaga", "ldct": "chiesa", "schedasint": 0, "ldcq": "sussidiaria", "pvci": "Via Armando Diaz" }, "geometry": { "type": "Point", "coordinates": [ 8.76316, 45.94706 ] } },
{ "type": "Feature", "properties": { "id": "chiese_italia.3706", "denominazi": "Immacolata Concezione", "cod_cei": "75L", "sercd": 14068, "pvcc": "Germignaga", "ldct": "chiesa", "schedasint": 0, "ldcq": "sussidiaria", "pvci": "Via Bellini 16" }, "geometry": { "type": "Point", "coordinates": [ 8.74111, 45.98914 ] } },
{ "type": "Feature", "properties": { "id": "chiese_italia.3810", "denominazi": "S. Carlo", "cod_cei": "75Y", "sercd": 14183, "pvcc": "Grantola", "ldct": "chiesa", "schedasint": 0, "ldcq": "sussidiaria", "pvci": "Via Gandini" }, "geometry": { "type": "Point", "coordinates": [ 8.77268, 45.94847 ] } },
{ "type": "Feature", "properties": { "id": "chiese_italia.3811", "denominazi": "S. Pietro", "cod_cei": "75Y", "sercd": 14184, "pvcc": "Grantola", "ldct": "chiesa", "schedasint": 0, "ldcq": "sussidiaria", "pvci": "Via Mignani" }, "geometry": { "type": "Point", "coordinates": [ 8.77066, 45.94836 ] } },
{ "type": "Feature", "properties": { "id": "chiese_italia.3812", "denominazi": "Santi Pietro e Paolo", "cod_cei": "75Y", "sercd": 14185, "pvcc": "Grantola", "ldct": "chiesa", "schedasint": 0, "ldcq": "parrocchiale", "pvci": "Via Mignani, 7" }, "geometry": { "type": "Point", "coordinates": [ 8.77638, 45.949 ] } },
{ "type": "Feature", "properties": { "id": "chiese_italia.3820", "denominazi": "Santi Pietro e Paolo", "cod_cei": "75@", "sercd": 14193, "pvcc": "Inarzo", "ldct": "chiesa", "schedasint": 0, "ldcq": "parrocchiale", "pvci": "Pz.Conc.Ecumen.Vaticano II 2" }, "geometry": { "type": "Point", "coordinates": [ 8.73672, 45.78669 ] } },
{ "type": "Feature", "properties": { "id": "chiese_italia.3821", "denominazi": "S. Pietro", "cod_cei": "75@", "sercd": 14194, "pvcc": "Inarzo", "ldct": "chiesa", "schedasint": 0, "ldcq": "sussidiaria", "pvci": "Pz.Conc.Ecum.Vaticano II 2" }, "geometry": { "type": "Point", "coordinates": [ 8.73509, 45.78416 ] } },
{ "type": "Feature", "properties": { "id": "chiese_italia.3841", "denominazi": "S. Maria Assunta", "cod_cei": "76C", "sercd": 14214, "pvcc": "Lacchiarella", "ldct": "chiesa", "schedasint": 0, "ldcq": "parrocchiale", "pvci": "Via Matteotti" }, "geometry": { "type": "Point", "coordinates": [ 9.13836, 45.32092 ] } },
{ "type": "Feature", "properties": { "id": "chiese_italia.3842", "denominazi": "Santi Donato e Carpoforo", "cod_cei": "76D", "sercd": 14216, "pvcc": "Lacchiarella", "ldct": "chiesa", "schedasint": 0, "ldcq": "parrocchiale", "pvci": "" }, "geometry": { "type": "Point", "coordinates": [ 9.14847, 45.31912 ] } },
{ "type": "Feature", "properties": { "id": "chiese_italia.3942", "denominazi": "S. Rocco", "cod_cei": "76C", "sercd": 14318, "pvcc": "Lacchiarella", "ldct": "chiesa", "schedasint": 0, "ldcq": "sussidiaria", "pvci": "Piazza Risorgimento" }, "geometry": { "type": "Point", "coordinates": [ 9.13664, 45.32175 ] } },
{ "type": "Feature", "properties": { "id": "chiese_italia.4009", "denominazi": "S. Antonino M.", "cod_cei": "77#", "sercd": 14386, "pvcc": "Lozza", "ldct": "chiesa", "schedasint": 0, "ldcq": "parrocchiale", "pvci": "Piazza Monte Grappa, 2" }, "geometry": { "type": "Point", "coordinates": [ 8.85653, 45.77542 ] } },
{ "type": "Feature", "properties": { "id": "chiese_italia.4010", "denominazi": "Santi Quirico e Giulitta", "cod_cei": "781", "sercd": 14387, "pvcc": "Luino", "ldct": "chiesa", "schedasint": 0, "ldcq": "sussidiaria", "pvci": "Via Biviglione" }, "geometry": { "type": "Point", "coordinates": [ 8.76515, 45.986 ] } },
{ "type": "Feature", "properties": { "id": "chiese_italia.4011", "denominazi": "S. Biagio", "cod_cei": "781", "sercd": 14388, "pvcc": "Luino", "ldct": "chiesa", "schedasint": 0, "ldcq": "sussidiaria", "pvci": "Via S.Biagio" }, "geometry": { "type": "Point", "coordinates": [ 8.74954, 45.98944 ] } },
{ "type": "Feature", "properties": { "id": "chiese_italia.4012", "denominazi": "S. Maria Assunta", "cod_cei": "781", "sercd": 14389, "pvcc": "Luino", "ldct": "chiesa", "schedasint": 0, "ldcq": "parrocchiale", "pvci": "P.zza Chiesa" }, "geometry": { "type": "Point", "coordinates": [ 8.74943, 45.99069 ] } },
{ "type": "Feature", "properties": { "id": "chiese_italia.4013", "denominazi": "Sacro Cuore", "cod_cei": "781", "sercd": 14391, "pvcc": "Luino", "ldct": "chiesa", "schedasint": 0, "ldcq": "sussidiaria", "pvci": "P.zza A.Moro" }, "geometry": { "type": "Point", "coordinates": [ 8.7464, 46.0018 ] } },
{ "type": "Feature", "properties": { "id": "chiese_italia.4014", "denominazi": "Madonna del Rosario", "cod_cei": "782", "sercd": 14392, "pvcc": "Luino", "ldct": "chiesa", "schedasint": 0, "ldcq": "sussidiaria", "pvci": "" }, "geometry": { "type": "Point", "coordinates": [ 8.76761, 46.00942 ] } },
{ "type": "Feature", "properties": { "id": "chiese_italia.4015", "denominazi": "S. Rita", "cod_cei": "780", "sercd": 14393, "pvcc": "Luino", "ldct": "chiesa", "schedasint": 0, "ldcq": "sussidiaria", "pvci": "Via Berra" }, "geometry": { "type": "Point", "coordinates": [ 8.75712, 46.02591 ] } },
{ "type": "Feature", "properties": { "id": "chiese_italia.4016", "denominazi": "Santa Maria Immacolata", "cod_cei": "782", "sercd": 14394, "pvcc": "Luino", "ldct": "chiesa", "schedasint": 0, "ldcq": "parrocchiale", "pvci": "Loc.Poppino" }, "geometry": { "type": "Point", "coordinates": [ 8.76837, 45.93231 ] } },
{ "type": "Feature", "properties": { "id": "chiese_italia.4017", "denominazi": "Nostra Signora di Lourdes", "cod_cei": "77-", "sercd": 14395, "pvcc": "Luino", "ldct": "chiesa", "schedasint": 0, "ldcq": "parrocchiale", "pvci": "Via Moncucco 10" }, "geometry": { "type": "Point", "coordinates": [ 8.75499, 45.99817 ] } },
{ "type": "Feature", "properties": { "id": "chiese_italia.4018", "denominazi": "Santi Pietro e Paolo", "cod_cei": "783", "sercd": 14396, "pvcc": "Luino", "ldct": "chiesa", "schedasint": 0, "ldcq": "parrocchiale", "pvci": "Piazza Giovanni XXIII 13" }, "geometry": { "type": "Point", "coordinates": [ 8.74532, 46.00285 ] } },
{ "type": "Feature", "properties": { "id": "chiese_italia.4019", "denominazi": "S. Pietro in Campagna", "cod_cei": "783", "sercd": 14397, "pvcc": "Luino", "ldct": "chiesa", "schedasint": 0, "ldcq": "sussidiaria", "pvci": "Via S.Pietro" }, "geometry": { "type": "Point", "coordinates": [ 8.74817, 46.00047 ] } },
{ "type": "Feature", "properties": { "id": "chiese_italia.4020", "denominazi": "Madonna del Carmine", "cod_cei": "783", "sercd": 14398, "pvcc": "Luino", "ldct": "chiesa", "schedasint": 0, "ldcq": "sussidiaria", "pvci": "Via del Carmine 2" }, "geometry": { "type": "Point", "coordinates": [ 8.73876, 45.99906 ] } },
{ "type": "Feature", "properties": { "id": "chiese_italia.4021", "denominazi": "S. Giuseppe", "cod_cei": "783", "sercd": 14399, "pvcc": "Luino", "ldct": "chiesa", "schedasint": 0, "ldcq": "sussidiaria", "pvci": "Via Piero Chiara" }, "geometry": { "type": "Point", "coordinates": [ 8.74265, 46.00305 ] } },
{ "type": "Feature", "properties": { "id": "chiese_italia.4022", "denominazi": "S. Maria Ausiliatrice (Scuola e Oratorio)", "cod_cei": "783", "sercd": 14400, "pvcc": "Luino", "ldct": "chiesa", "schedasint": 0, "ldcq": "sussidiaria", "pvci": "Piazza S.Giovanni Bosco" }, "geometry": { "type": "Point", "coordinates": [ 8.74553, 46.00162 ] } },
{ "type": "Feature", "properties": { "id": "chiese_italia.4023", "denominazi": "S. Caterina", "cod_cei": "780", "sercd": 14401, "pvcc": "Luino", "ldct": "chiesa", "schedasint": 0, "ldcq": "parrocchiale", "pvci": "Via P.Bertoni" }, "geometry": { "type": "Point", "coordinates": [ 8.76836, 45.93231 ] } },
{ "type": "Feature", "properties": { "id": "chiese_italia.4025", "denominazi": "S. Bernardino", "cod_cei": "78A", "sercd": 14404, "pvcc": "Maccagno", "ldct": "chiesa", "schedasint": 0, "ldcq": "sussidiaria", "pvci": "Loc.Musignano" }, "geometry": { "type": "Point", "coordinates": [ 8.74449, 46.06723 ] } },
{ "type": "Feature", "properties": { "id": "chiese_italia.4026", "denominazi": "S. Rocco", "cod_cei": "78A", "sercd": 14405, "pvcc": "Maccagno", "ldct": "chiesa", "schedasint": 0, "ldcq": "sussidiaria", "pvci": "Via F.lli Solera" }, "geometry": { "type": "Point", "coordinates": [ 8.73665, 46.03853 ] } },
{ "type": "Feature", "properties": { "id": "chiese_italia.4027", "denominazi": "S. Sebastiano", "cod_cei": "78A", "sercd": 14406, "pvcc": "Maccagno", "ldct": "chiesa", "schedasint": 0, "ldcq": "sussidiaria", "pvci": "P.za S.Sebastiano - Loc. Campagnano" }, "geometry": { "type": "Point", "coordinates": [ 8.74351, 46.05063 ] } },
{ "type": "Feature", "properties": { "id": "chiese_italia.4028", "denominazi": "Madonna Addolorata", "cod_cei": "78A", "sercd": 14407, "pvcc": "Maccagno", "ldct": "chiesa", "schedasint": 0, "ldcq": "sussidiaria", "pvci": "Loc.Moscia" }, "geometry": { "type": "Point", "coordinates": [ 8.73669, 46.03853 ] } },
{ "type": "Feature", "properties": { "id": "chiese_italia.4029", "denominazi": "S. Materno", "cod_cei": "78B", "sercd": 14408, "pvcc": "Maccagno", "ldct": "chiesa", "schedasint": 0, "ldcq": "parrocchiale", "pvci": "Piazza S.Materno" }, "geometry": { "type": "Point", "coordinates": [ 8.73888, 46.04383 ] } },
{ "type": "Feature", "properties": { "id": "chiese_italia.4030", "denominazi": "S. Antonio", "cod_cei": "78B", "sercd": 14409, "pvcc": "Maccagno", "ldct": "chiesa", "schedasint": 0, "ldcq": "sussidiaria", "pvci": "Via Baroggi" }, "geometry": { "type": "Point", "coordinates": [ 8.75051, 46.04934 ] } },
{ "type": "Feature", "properties": { "id": "chiese_italia.4031", "denominazi": "Madonna della Neve", "cod_cei": "78B", "sercd": 14410, "pvcc": "Maccagno", "ldct": "chiesa", "schedasint": 0, "ldcq": "sussidiaria", "pvci": "Loc.Bruganten" }, "geometry": { "type": "Point", "coordinates": [ 8.73666, 46.03853 ] } },
{ "type": "Feature", "properties": { "id": "chiese_italia.4032", "denominazi": "S. Carlo", "cod_cei": "78B", "sercd": 14411, "pvcc": "Maccagno", "ldct": "chiesa", "schedasint": 0, "ldcq": "sussidiaria", "pvci": "Via S.Carlo" }, "geometry": { "type": "Point", "coordinates": [ 8.74607, 46.00281 ] } },
{ "type": "Feature", "properties": { "id": "chiese_italia.4033", "denominazi": "Madonna delle Grazie", "cod_cei": "78B", "sercd": 14413, "pvcc": "Maccagno", "ldct": "chiesa", "schedasint": 0, "ldcq": "sussidiaria", "pvci": "Via Caretti" }, "geometry": { "type": "Point", "coordinates": [ 8.73675, 46.03853 ] } },
{ "type": "Feature", "properties": { "id": "chiese_italia.4034", "denominazi": "S. Stefano", "cod_cei": "78B", "sercd": 14414, "pvcc": "Maccagno", "ldct": "chiesa", "schedasint": 0, "ldcq": "sussidiaria", "pvci": "Piazza S.Stefano" }, "geometry": { "type": "Point", "coordinates": [ 8.73668, 46.03853 ] } },
{ "type": "Feature", "properties": { "id": "chiese_italia.4035", "denominazi": "S. Carlo e Annunciazione", "cod_cei": "78A", "sercd": 14415, "pvcc": "Maccagno", "ldct": "chiesa", "schedasint": 0, "ldcq": "sussidiaria", "pvci": "P.zza S.Carlo" }, "geometry": { "type": "Point", "coordinates": [ 8.74608, 46.00281 ] } },
{ "type": "Feature", "properties": { "id": "chiese_italia.4123", "denominazi": "Santi Ippolito e Cassiano", "cod_cei": "789", "sercd": 14508, "pvcc": "Luvinate", "ldct": "chiesa", "schedasint": 0, "ldcq": "parrocchiale", "pvci": "Via Marconi, 2" }, "geometry": { "type": "Point", "coordinates": [ 8.76803, 45.83939 ] } },
{ "type": "Feature", "properties": { "id": "chiese_italia.4124", "denominazi": "Madonna del Rosario", "cod_cei": "78B", "sercd": 14509, "pvcc": "Maccagno", "ldct": "chiesa", "schedasint": 0, "ldcq": "sussidiaria", "pvci": "Via Bernardino Fiora" }, "geometry": { "type": "Point", "coordinates": [ 8.73666, 46.03853 ] } },
{ "type": "Feature", "properties": { "id": "chiese_italia.4125", "denominazi": "S. Silvestro", "cod_cei": "78A", "sercd": 14510, "pvcc": "Maccagno", "ldct": "chiesa", "schedasint": 0, "ldcq": "parrocchiale", "pvci": "Pz.4 Novembre - Loc. Cadero" }, "geometry": { "type": "Point", "coordinates": [ 8.73665, 46.03853 ] } },
{ "type": "Feature", "properties": { "id": "chiese_italia.4139", "denominazi": "S. Lorenzo Diacono e M.", "cod_cei": "78O", "sercd": 14524, "pvcc": "Malnate", "ldct": "chiesa", "schedasint": 0, "ldcq": "parrocchiale", "pvci": "Via Redipuglia, 2" }, "geometry": { "type": "Point", "coordinates": [ 8.86702, 45.78772 ] } },
{ "type": "Feature", "properties": { "id": "chiese_italia.4140", "denominazi": "S. Martino", "cod_cei": "78P", "sercd": 14525, "pvcc": "Malnate", "ldct": "chiesa", "schedasint": 0, "ldcq": "parrocchiale", "pvci": "Via Volta, 34" }, "geometry": { "type": "Point", "coordinates": [ 8.8914, 45.7755 ] } },
{ "type": "Feature", "properties": { "id": "chiese_italia.4141", "denominazi": "SS. Trinit√†", "cod_cei": "78Q", "sercd": 14527, "pvcc": "Malnate", "ldct": "chiesa", "schedasint": 0, "ldcq": "parrocchiale", "pvci": "" }, "geometry": { "type": "Point", "coordinates": [ 8.85175, 45.79025 ] } },
{ "type": "Feature", "properties": { "id": "chiese_italia.4174", "denominazi": "Purificazione di Maria Vergine", "cod_cei": "79E", "sercd": 14560, "pvcc": "Mesenzana", "ldct": "chiesa", "schedasint": 0, "ldcq": "parrocchiale", "pvci": "Via Della Torre 7" }, "geometry": { "type": "Point", "coordinates": [ 8.75587, 45.94775 ] } },
{ "type": "Feature", "properties": { "id": "chiese_italia.4383", "denominazi": "Annunciazione", "cod_cei": "7DQ", "sercd": 14777, "pvcc": "Montegrino Valtravaglia", "ldct": "chiesa", "schedasint": 0, "ldcq": "parrocchiale", "pvci": "" }, "geometry": { "type": "Point", "coordinates": [ 8.77333, 45.95881 ] } },
{ "type": "Feature", "properties": { "id": "chiese_italia.4384", "denominazi": "Santi Rocco e Sebastiano", "cod_cei": "7DR", "sercd": 14778, "pvcc": "Montegrino Valtravaglia", "ldct": "chiesa", "schedasint": 0, "ldcq": "sussidiaria", "pvci": "Piazza D.Girani" }, "geometry": { "type": "Point", "coordinates": [ 8.76903, 45.97308 ] } },
{ "type": "Feature", "properties": { "id": "chiese_italia.4385", "denominazi": "S. Ambrogio", "cod_cei": "7DR", "sercd": 14779, "pvcc": "Montegrino Valtravaglia", "ldct": "chiesa", "schedasint": 0, "ldcq": "parrocchiale", "pvci": "Via Vittorio Veneto" }, "geometry": { "type": "Point", "coordinates": [ 8.77058, 45.97092 ] } },
{ "type": "Feature", "properties": { "id": "chiese_italia.4431", "denominazi": "S. Carlo Borromeo Vescovo", "cod_cei": "7EY", "sercd": 14830, "pvcc": "Novate Milanese", "ldct": "chiesa", "schedasint": 0, "ldcq": "parrocchiale", "pvci": "Via Gran Paradiso 2" }, "geometry": { "type": "Point", "coordinates": [ 9.13443, 45.53953 ] } },
{ "type": "Feature", "properties": { "id": "chiese_italia.4432", "denominazi": "Maria Immacolata (Oratorio Femminile)", "cod_cei": "7E_", "sercd": 14831, "pvcc": "Novate Milanese", "ldct": "chiesa", "schedasint": 0, "ldcq": "sussidiaria", "pvci": "Via Cascina del Sole 9" }, "geometry": { "type": "Point", "coordinates": [ 9.14186, 45.53303 ] } },
{ "type": "Feature", "properties": { "id": "chiese_italia.4433", "denominazi": "Santi Gervaso e Protaso", "cod_cei": "7E_", "sercd": 14832, "pvcc": "Novate Milanese", "ldct": "chiesa", "schedasint": 0, "ldcq": "parrocchiale", "pvci": "Piazza Chiesa 12" }, "geometry": { "type": "Point", "coordinates": [ 9.14077, 45.53175 ] } },
{ "type": "Feature", "properties": { "id": "chiese_italia.4436", "denominazi": "Spirito Santo", "cod_cei": "7E$", "sercd": 14835, "pvcc": "Noviglio", "ldct": "chiesa", "schedasint": 0, "ldcq": "parrocchiale", "pvci": "Via Papa Giovanni XXIII" }, "geometry": { "type": "Point", "coordinates": [ 9.08783, 45.33992 ] } },
{ "type": "Feature", "properties": { "id": "chiese_italia.4437", "denominazi": "S. Sebastiano", "cod_cei": "7E@", "sercd": 14836, "pvcc": "Noviglio", "ldct": "chiesa", "schedasint": 0, "ldcq": "parrocchiale", "pvci": "Via Verdi 4" }, "geometry": { "type": "Point", "coordinates": [ 9.05337, 45.35828 ] } },
{ "type": "Feature", "properties": { "id": "chiese_italia.4438", "denominazi": "S. Michele", "cod_cei": "7E@", "sercd": 14837, "pvcc": "Noviglio", "ldct": "chiesa", "schedasint": 0, "ldcq": "sussidiaria", "pvci": "Via G.Rossa" }, "geometry": { "type": "Point", "coordinates": [ 9.05117, 45.35894 ] } },
{ "type": "Feature", "properties": { "id": "chiese_italia.4439", "denominazi": "Santi Pietro e Paolo", "cod_cei": "7E@", "sercd": 14838, "pvcc": "Noviglio", "ldct": "chiesa", "schedasint": 0, "ldcq": "sussidiaria", "pvci": "Via Buozzi" }, "geometry": { "type": "Point", "coordinates": [ 9.0581, 45.37461 ] } },
{ "type": "Feature", "properties": { "id": "chiese_italia.4510", "denominazi": "S. Pietro e S. Maria Immacolata", "cod_cei": "7GN", "sercd": 14918, "pvcc": "Porto Valtravaglia", "ldct": "chiesa", "schedasint": 0, "ldcq": "sussidiaria", "pvci": "Via Isabella 29" }, "geometry": { "type": "Point", "coordinates": [ 8.69698, 45.95511 ] } },
{ "type": "Feature", "properties": { "id": "chiese_italia.4511", "denominazi": "S. Rocco (o Madonna della Neve)", "cod_cei": "7GN", "sercd": 14919, "pvcc": "Porto Valtravaglia", "ldct": "chiesa", "schedasint": 0, "ldcq": "sussidiaria", "pvci": "Via S.Rocco" }, "geometry": { "type": "Point", "coordinates": [ 8.67653, 45.96078 ] } },
{ "type": "Feature", "properties": { "id": "chiese_italia.4512", "denominazi": "S. Michele", "cod_cei": "7GN", "sercd": 14920, "pvcc": "Porto Valtravaglia", "ldct": "chiesa", "schedasint": 0, "ldcq": "sussidiaria", "pvci": "Via S.Michele" }, "geometry": { "type": "Point", "coordinates": [ 8.74301, 45.94931 ] } },
{ "type": "Feature", "properties": { "id": "chiese_italia.4524", "denominazi": "S. Luigi Gonzaga (Oratorio Maschile)", "cod_cei": "7E_", "sercd": 14932, "pvcc": "Novate Milanese", "ldct": "chiesa", "schedasint": 0, "ldcq": "sussidiaria", "pvci": "Via Cascina del Sole 28" }, "geometry": { "type": "Point", "coordinates": [ 9.14151, 45.53396 ] } },
{ "type": "Feature", "properties": { "id": "chiese_italia.4525", "denominazi": "Sacra Famiglia", "cod_cei": "7EZ", "sercd": 14933, "pvcc": "Novate Milanese", "ldct": "chiesa", "schedasint": 0, "ldcq": "parrocchiale", "pvci": "Via Resistenza" }, "geometry": { "type": "Point", "coordinates": [ 9.12992, 45.53108 ] } },
{ "type": "Feature", "properties": { "id": "chiese_italia.4548", "denominazi": "S. Maria Immacolata", "cod_cei": "7FD", "sercd": 14956, "pvcc": "Origgio", "ldct": "chiesa", "schedasint": 0, "ldcq": "parrocchiale", "pvci": "Via Piantanida, 11" }, "geometry": { "type": "Point", "coordinates": [ 9.01916, 45.59736 ] } },
{ "type": "Feature", "properties": { "id": "chiese_italia.4549", "denominazi": "S. Giorgio", "cod_cei": "7FD", "sercd": 14957, "pvcc": "Origgio", "ldct": "chiesa", "schedasint": 0, "ldcq": "sussidiaria", "pvci": "Via Manzoni 29" }, "geometry": { "type": "Point", "coordinates": [ 9.01654, 45.59575 ] } },
{ "type": "Feature", "properties": { "id": "chiese_italia.4550", "denominazi": "Madonna del Bosco", "cod_cei": "7FD", "sercd": 14958, "pvcc": "Origgio", "ldct": "chiesa", "schedasint": 0, "ldcq": "sussidiaria", "pvci": "Via per Muschiona" }, "geometry": { "type": "Point", "coordinates": [ 9.02547, 45.59942 ] } },
{ "type": "Feature", "properties": { "id": "chiese_italia.4554", "denominazi": "Santi Nazaro e Celso", "cod_cei": "7FR", "sercd": 14962, "pvcc": "Paderno Dugnano", "ldct": "chiesa", "schedasint": 0, "ldcq": "parrocchiale", "pvci": "Via Grandi 12" }, "geometry": { "type": "Point", "coordinates": [ 9.1664, 45.56834 ] } },
{ "type": "Feature", "properties": { "id": "chiese_italia.4555", "denominazi": "S. Maria Nascente", "cod_cei": "7FO", "sercd": 14963, "pvcc": "Paderno Dugnano", "ldct": "chiesa", "schedasint": 0, "ldcq": "parrocchiale", "pvci": "Via Roma 65" }, "geometry": { "type": "Point", "coordinates": [ 9.16446, 45.56422 ] } },
{ "type": "Feature", "properties": { "id": "chiese_italia.4556", "denominazi": "Maria Immacolata", "cod_cei": "7FL", "sercd": 14964, "pvcc": "Paderno Dugnano", "ldct": "chiesa", "schedasint": 0, "ldcq": "parrocchiale", "pvci": "Via Vivaldi 7" }, "geometry": { "type": "Point", "coordinates": [ 9.18797, 45.57106 ] } },
{ "type": "Feature", "properties": { "id": "chiese_italia.4557", "denominazi": "S. Maria Annunciata", "cod_cei": "7FR", "sercd": 14965, "pvcc": "Paderno Dugnano", "ldct": "chiesa", "schedasint": 0, "ldcq": "sussidiaria", "pvci": "Via Piaggio" }, "geometry": { "type": "Point", "coordinates": [ 9.15441, 45.56564 ] } },
{ "type": "Feature", "properties": { "id": "chiese_italia.4558", "denominazi": "S. Ambrogio", "cod_cei": "7FM", "sercd": 14966, "pvcc": "Paderno Dugnano", "ldct": "chiesa", "schedasint": 0, "ldcq": "parrocchiale", "pvci": "V.Reali 37" }, "geometry": { "type": "Point", "coordinates": [ 9.14919, 45.56794 ] } },
{ "type": "Feature", "properties": { "id": "chiese_italia.4559", "denominazi": "Sacra Famiglia", "cod_cei": "7FQ", "sercd": 14967, "pvcc": "Paderno Dugnano", "ldct": "chiesa", "schedasint": 0, "ldcq": "parrocchiale", "pvci": "Via Tripoli" }, "geometry": { "type": "Point", "coordinates": [ 9.15902, 45.5555 ] } },
{ "type": "Feature", "properties": { "id": "chiese_italia.4560", "denominazi": "S. Maria Assunta", "cod_cei": "7FN", "sercd": 14968, "pvcc": "Paderno Dugnano", "ldct": "chiesa", "schedasint": 0, "ldcq": "parrocchiale", "pvci": "Via Italia 34" }, "geometry": { "type": "Point", "coordinates": [ 9.16332, 45.57467 ] } },
{ "type": "Feature", "properties": { "id": "chiese_italia.4561", "denominazi": "Madonna del Rosario e S. Giovanni Bosco", "cod_cei": "7FP", "sercd": 14969, "pvcc": "Paderno Dugnano", "ldct": "chiesa", "schedasint": 0, "ldcq": "sussidiaria", "pvci": "Via Diaz" }, "geometry": { "type": "Point", "coordinates": [ 9.15278, 45.58297 ] } },
{ "type": "Feature", "properties": { "id": "chiese_italia.4562", "denominazi": "S. Martino V.", "cod_cei": "7FP", "sercd": 14970, "pvcc": "Paderno Dugnano", "ldct": "chiesa", "schedasint": 0, "ldcq": "parrocchiale", "pvci": "Via S. Martino, 2" }, "geometry": { "type": "Point", "coordinates": [ 9.15863, 45.58728 ] } },
{ "type": "Feature", "properties": { "id": "chiese_italia.4595", "denominazi": "S. Giorgio", "cod_cei": "6#@", "sercd": 15010, "pvcc": "Porto Valtravaglia", "ldct": "chiesa", "schedasint": 0, "ldcq": "sussidiaria", "pvci": "" }, "geometry": { "type": "Point", "coordinates": [ 8.67652, 45.96078 ] } },
{ "type": "Feature", "properties": { "id": "chiese_italia.4596", "denominazi": "S. Stefano", "cod_cei": "7GN", "sercd": 15011, "pvcc": "Porto Valtravaglia", "ldct": "chiesa", "schedasint": 0, "ldcq": "sussidiaria", "pvci": "Via 4 Novembre" }, "geometry": { "type": "Point", "coordinates": [ 8.69436, 45.95182 ] } },
{ "type": "Feature", "properties": { "id": "chiese_italia.4597", "denominazi": "S. Maria Assunta", "cod_cei": "7GN", "sercd": 15012, "pvcc": "Porto Valtravaglia", "ldct": "chiesa", "schedasint": 0, "ldcq": "parrocchiale", "pvci": "Via 4 Novembre" }, "geometry": { "type": "Point", "coordinates": [ 8.76836, 45.93231 ] } },
{ "type": "Feature", "properties": { "id": "chiese_italia.4598", "denominazi": "Battistero dedicato a S. Giovanni Battista", "cod_cei": "7GN", "sercd": 15013, "pvcc": "Porto Valtravaglia", "ldct": "chiesa", "schedasint": 0, "ldcq": "sussidiaria", "pvci": "Via 4 Novembre" }, "geometry": { "type": "Point", "coordinates": [ 8.69437, 45.95182 ] } },
{ "type": "Feature", "properties": { "id": "chiese_italia.4599", "denominazi": "S. Maria del Fiume (o Madonna delle Cappelle)", "cod_cei": "7GO", "sercd": 15014, "pvcc": "Porto Valtravaglia", "ldct": "chiesa", "schedasint": 0, "ldcq": "sussidiaria", "pvci": "Via Luino" }, "geometry": { "type": "Point", "coordinates": [ 8.68328, 45.96264 ] } },
{ "type": "Feature", "properties": { "id": "chiese_italia.4600", "denominazi": "S. Rocco", "cod_cei": "7GO", "sercd": 15015, "pvcc": "Porto Valtravaglia", "ldct": "chiesa", "schedasint": 0, "ldcq": "sussidiaria", "pvci": "Via Roma" }, "geometry": { "type": "Point", "coordinates": [ 8.6786, 45.95989 ] } },
{ "type": "Feature", "properties": { "id": "chiese_italia.4601", "denominazi": "S. Maria Assunta", "cod_cei": "7GO", "sercd": 15016, "pvcc": "Porto Valtravaglia", "ldct": "chiesa", "schedasint": 0, "ldcq": "parrocchiale", "pvci": "Via Martignoni 2" }, "geometry": { "type": "Point", "coordinates": [ 8.68052, 45.961 ] } },
{ "type": "Feature", "properties": { "id": "chiese_italia.4602", "denominazi": "Madonna del Roncaccio", "cod_cei": "7GN", "sercd": 15017, "pvcc": "Porto Valtravaglia", "ldct": "chiesa", "schedasint": 0, "ldcq": "sussidiaria", "pvci": "Via Altipiano" }, "geometry": { "type": "Point", "coordinates": [ 8.68509, 45.95942 ] } },
{ "type": "Feature", "properties": { "id": "chiese_italia.4674", "denominazi": "S. Francesco", "cod_cei": "7IF", "sercd": 15093, "pvcc": "Saronno", "ldct": "chiesa", "schedasint": 0, "ldcq": "sussidiaria", "pvci": "Piazza S.Francesco" }, "geometry": { "type": "Point", "coordinates": [ 9.03336, 45.63281 ] } },
{ "type": "Feature", "properties": { "id": "chiese_italia.4675", "denominazi": "S. Antonio", "cod_cei": "7IE", "sercd": 15094, "pvcc": "Saronno", "ldct": "chiesa", "schedasint": 0, "ldcq": "sussidiaria", "pvci": "Via D'Annunzio" }, "geometry": { "type": "Point", "coordinates": [ 9.03596, 45.62422 ] } },
{ "type": "Feature", "properties": { "id": "chiese_italia.4676", "denominazi": "Santi Pietro e Paolo", "cod_cei": "7IF", "sercd": 15095, "pvcc": "Saronno", "ldct": "chiesa", "schedasint": 0, "ldcq": "parrocchiale", "pvci": "Piazza Liberta' 2" }, "geometry": { "type": "Point", "coordinates": [ 9.03736, 45.62583 ] } },
{ "type": "Feature", "properties": { "id": "chiese_italia.4677", "denominazi": "Beata Vergine dei Miracoli", "cod_cei": "7IA", "sercd": 15096, "pvcc": "Saronno", "ldct": "chiesa", "schedasint": 0, "ldcq": "parrocchiale", "pvci": "Piazza Santuario 1" }, "geometry": { "type": "Point", "coordinates": [ 9.02502, 45.62625 ] } },
{ "type": "Feature", "properties": { "id": "chiese_italia.4678", "denominazi": "S. Giovanni Battista", "cod_cei": "7IC", "sercd": 15097, "pvcc": "Saronno", "ldct": "chiesa", "schedasint": 0, "ldcq": "parrocchiale", "pvci": "Via Larga 3" }, "geometry": { "type": "Point", "coordinates": [ 9.0463, 45.63667 ] } },
{ "type": "Feature", "properties": { "id": "chiese_italia.4679", "denominazi": "S. Giuseppe", "cod_cei": "7ID", "sercd": 15098, "pvcc": "Saronno", "ldct": "chiesa", "schedasint": 0, "ldcq": "parrocchiale", "pvci": "Via Evangelista Torricelli" }, "geometry": { "type": "Point", "coordinates": [ 9.02833, 45.61827 ] } },
{ "type": "Feature", "properties": { "id": "chiese_italia.4680", "denominazi": "Sacra Famiglia", "cod_cei": "7IE", "sercd": 15099, "pvcc": "Saronno", "ldct": "chiesa", "schedasint": 0, "ldcq": "parrocchiale", "pvci": "Viale Prealpi, 17" }, "geometry": { "type": "Point", "coordinates": [ 9.03138, 45.63325 ] } },
{ "type": "Feature", "properties": { "id": "chiese_italia.4682", "denominazi": "Beata Vergine di Fatima e S. Rita", "cod_cei": "7IO", "sercd": 15102, "pvcc": "Senago", "ldct": "chiesa", "schedasint": 0, "ldcq": "parrocchiale", "pvci": "Via Volta, 224" }, "geometry": { "type": "Point", "coordinates": [ 9.13459, 45.57947 ] } },
{ "type": "Feature", "properties": { "id": "chiese_italia.4683", "denominazi": "Santi Luigi e Caterina (Oratorio)", "cod_cei": "7IP", "sercd": 15103, "pvcc": "Senago", "ldct": "chiesa", "schedasint": 0, "ldcq": "sussidiaria", "pvci": "Via Repubblica 7" }, "geometry": { "type": "Point", "coordinates": [ 9.1185, 45.57442 ] } },
{ "type": "Feature", "properties": { "id": "chiese_italia.4684", "denominazi": "S. Bernardino da Siena", "cod_cei": "7IP", "sercd": 15104, "pvcc": "Senago", "ldct": "chiesa", "schedasint": 0, "ldcq": "sussidiaria", "pvci": "Cascina Traversagna" }, "geometry": { "type": "Point", "coordinates": [ 9.11465, 45.55967 ] } },
{ "type": "Feature", "properties": { "id": "chiese_italia.4685", "denominazi": "Santi Martino e Bernardo", "cod_cei": "7IP", "sercd": 15105, "pvcc": "Senago", "ldct": "chiesa", "schedasint": 0, "ldcq": "sussidiaria", "pvci": "Via S.Bernardo" }, "geometry": { "type": "Point", "coordinates": [ 9.12363, 45.57772 ] } },
{ "type": "Feature", "properties": { "id": "chiese_italia.4686", "denominazi": "B.V. Assunta (Antica Chiesa Parr.)", "cod_cei": "7IP", "sercd": 15106, "pvcc": "Senago", "ldct": "chiesa", "schedasint": 0, "ldcq": "sussidiaria", "pvci": "Piazza Assunta" }, "geometry": { "type": "Point", "coordinates": [ 9.17613, 45.58526 ] } },
{ "type": "Feature", "properties": { "id": "chiese_italia.4687", "denominazi": "S. Maria Assunta", "cod_cei": "7IP", "sercd": 15107, "pvcc": "Senago", "ldct": "chiesa", "schedasint": 0, "ldcq": "parrocchiale", "pvci": "Piazza Chiesa 1" }, "geometry": { "type": "Point", "coordinates": [ 9.12528, 45.57986 ] } },
{ "type": "Feature", "properties": { "id": "chiese_italia.4699", "denominazi": "S. Giuseppe", "cod_cei": "7J1", "sercd": 15120, "pvcc": "Sesto San Giovanni", "ldct": "chiesa", "schedasint": 0, "ldcq": "parrocchiale", "pvci": "Via XX Settembre 72" }, "geometry": { "type": "Point", "coordinates": [ 9.22473, 45.53267 ] } },
{ "type": "Feature", "properties": { "id": "chiese_italia.4700", "denominazi": "S. Giovanni Battista", "cod_cei": "7I-", "sercd": 15121, "pvcc": "Sesto San Giovanni", "ldct": "chiesa", "schedasint": 0, "ldcq": "parrocchiale", "pvci": "Via Fogagnolo 96" }, "geometry": { "type": "Point", "coordinates": [ 9.23476, 45.53147 ] } },
{ "type": "Feature", "properties": { "id": "chiese_italia.4701", "denominazi": "S. Giorgio", "cod_cei": "7I#", "sercd": 15122, "pvcc": "Sesto San Giovanni", "ldct": "chiesa", "schedasint": 0, "ldcq": "parrocchiale", "pvci": "Via Migliorini 2" }, "geometry": { "type": "Point", "coordinates": [ 9.25443, 45.54408 ] } },
{ "type": "Feature", "properties": { "id": "chiese_italia.4702", "denominazi": "Madonna di Lourdes", "cod_cei": "7I#", "sercd": 15123, "pvcc": "Sesto San Giovanni", "ldct": "chiesa", "schedasint": 0, "ldcq": "sussidiaria", "pvci": "Via Tevere 7" }, "geometry": { "type": "Point", "coordinates": [ 9.26029, 45.55297 ] } },
{ "type": "Feature", "properties": { "id": "chiese_italia.4703", "denominazi": "S. Carlo Borromeo", "cod_cei": "7I@", "sercd": 15124, "pvcc": "Sesto San Giovanni", "ldct": "chiesa", "schedasint": 0, "ldcq": "parrocchiale", "pvci": "Via Boccaccio 348" }, "geometry": { "type": "Point", "coordinates": [ 9.23972, 45.54645 ] } },
{ "type": "Feature", "properties": { "id": "chiese_italia.4704", "denominazi": "S. Stefano", "cod_cei": "7J4", "sercd": 15125, "pvcc": "Sesto San Giovanni", "ldct": "chiesa", "schedasint": 0, "ldcq": "parrocchiale", "pvci": "Via Volta, 1" }, "geometry": { "type": "Point", "coordinates": [ 9.24092, 45.53653 ] } },
{ "type": "Feature", "properties": { "id": "chiese_italia.4764", "denominazi": "S. Giacomo (Oratorio Maschile)", "cod_cei": "7IF", "sercd": 15190, "pvcc": "Saronno", "ldct": "chiesa", "schedasint": 0, "ldcq": "sussidiaria", "pvci": "Via Legnani 1" }, "geometry": { "type": "Point", "coordinates": [ 9.03898, 45.62847 ] } },
{ "type": "Feature", "properties": { "id": "chiese_italia.4765", "denominazi": "S. Maria del Suffragio", "cod_cei": "7IF", "sercd": 15191, "pvcc": "Saronno", "ldct": "chiesa", "schedasint": 0, "ldcq": "sussidiaria", "pvci": "Cimitero" }, "geometry": { "type": "Point", "coordinates": [ 9.0431, 45.63767 ] } },
{ "type": "Feature", "properties": { "id": "chiese_italia.4766", "denominazi": "Regina Pacis", "cod_cei": "7IB", "sercd": 15193, "pvcc": "Saronno", "ldct": "chiesa", "schedasint": 0, "ldcq": "parrocchiale", "pvci": "Via 24 Maggio 3" }, "geometry": { "type": "Point", "coordinates": [ 9.0321, 45.62753 ] } },
{ "type": "Feature", "properties": { "id": "chiese_italia.4788", "denominazi": "S. Maria Assunta", "cod_cei": "7J4", "sercd": 15216, "pvcc": "Sesto San Giovanni", "ldct": "chiesa", "schedasint": 0, "ldcq": "sussidiaria", "pvci": "Via Cavour" }, "geometry": { "type": "Point", "coordinates": [ 9.23827, 45.53428 ] } },
{ "type": "Feature", "properties": { "id": "chiese_italia.4789", "denominazi": "Madonna del Bosco", "cod_cei": "7J3", "sercd": 15217, "pvcc": "Sesto San Giovanni", "ldct": "chiesa", "schedasint": 0, "ldcq": "sussidiaria", "pvci": "Via Madonna del Bosco" }, "geometry": { "type": "Point", "coordinates": [ 9.2566, 45.52856 ] } },
{ "type": "Feature", "properties": { "id": "chiese_italia.4790", "denominazi": "S. Maria Nascente e Beato Giovanni Mazzucconi", "cod_cei": "7J3", "sercd": 15218, "pvcc": "Sesto San Giovanni", "ldct": "chiesa", "schedasint": 0, "ldcq": "parrocchiale", "pvci": "Via Carlo Marx" }, "geometry": { "type": "Point", "coordinates": [ 9.24749, 45.52653 ] } },
{ "type": "Feature", "properties": { "id": "chiese_italia.4791", "denominazi": "S. Giovanni Bosco", "cod_cei": "7J0", "sercd": 15219, "pvcc": "Sesto San Giovanni", "ldct": "chiesa", "schedasint": 0, "ldcq": "parrocchiale", "pvci": "Via Saint Denis 215" }, "geometry": { "type": "Point", "coordinates": [ 9.22273, 45.53803 ] } },
{ "type": "Feature", "properties": { "id": "chiese_italia.4792", "denominazi": "Resurrezione di Ges√π", "cod_cei": "7I$", "sercd": 15220, "pvcc": "Sesto San Giovanni", "ldct": "chiesa", "schedasint": 0, "ldcq": "parrocchiale", "pvci": "Via Pisa, 37" }, "geometry": { "type": "Point", "coordinates": [ 9.25739, 45.53167 ] } },
{ "type": "Feature", "properties": { "id": "chiese_italia.4793", "denominazi": "SS. Redentore e S. Francesco", "cod_cei": "7J5", "sercd": 15221, "pvcc": "Sesto San Giovanni", "ldct": "chiesa", "schedasint": 0, "ldcq": "parrocchiale", "pvci": "Via Monte S.Michele 130" }, "geometry": { "type": "Point", "coordinates": [ 9.22711, 45.52519 ] } },
{ "type": "Feature", "properties": { "id": "chiese_italia.4794", "denominazi": "S. Maria Ausiliatrice", "cod_cei": "7J2", "sercd": 15222, "pvcc": "Sesto San Giovanni", "ldct": "chiesa", "schedasint": 0, "ldcq": "parrocchiale", "pvci": "Via Matteotti 425" }, "geometry": { "type": "Point", "coordinates": [ 9.23096, 45.54386 ] } },
{ "type": "Feature", "properties": { "id": "chiese_italia.4795", "denominazi": "S. Domenico Savio (Oratorio Maschile)", "cod_cei": "7J3", "sercd": 15223, "pvcc": "Sesto San Giovanni", "ldct": "chiesa", "schedasint": 0, "ldcq": "sussidiaria", "pvci": "Via Mulino Tuono" }, "geometry": { "type": "Point", "coordinates": [ 9.25531, 45.52339 ] } },
{ "type": "Feature", "properties": { "id": "chiese_italia.4796", "denominazi": "S. Maria Nascente (ex Chiesa Parr.)", "cod_cei": "7J3", "sercd": 15224, "pvcc": "Sesto San Giovanni", "ldct": "chiesa", "schedasint": 0, "ldcq": "sussidiaria", "pvci": "Piazza della Chiesa" }, "geometry": { "type": "Point", "coordinates": [ 9.25204, 45.52636 ] } },
{ "type": "Feature", "properties": { "id": "chiese_italia.4813", "denominazi": "Santi Ambrogio e Caterina", "cod_cei": "7JM", "sercd": 15241, "pvcc": "Solaro", "ldct": "chiesa", "schedasint": 0, "ldcq": "sussidiaria", "pvci": "Via Mazzini" }, "geometry": { "type": "Point", "coordinates": [ 9.07977, 45.61653 ] } },
{ "type": "Feature", "properties": { "id": "chiese_italia.4814", "denominazi": "Santi Quirico e Giulitta", "cod_cei": "7JM", "sercd": 15242, "pvcc": "Solaro", "ldct": "chiesa", "schedasint": 0, "ldcq": "parrocchiale", "pvci": "Via Pellizzoni, 20" }, "geometry": { "type": "Point", "coordinates": [ 9.08136, 45.61736 ] } },
{ "type": "Feature", "properties": { "id": "chiese_italia.4871", "denominazi": "Santi App.Pietro e Paolo", "cod_cei": "7KR", "sercd": 15304, "pvcc": "Uboldo", "ldct": "chiesa", "schedasint": 0, "ldcq": "parrocchiale", "pvci": "Piazza Conciliazione 2" }, "geometry": { "type": "Point", "coordinates": [ 9.00788, 45.61244 ] } },
{ "type": "Feature", "properties": { "id": "chiese_italia.4880", "denominazi": "S. Croce in Campobella", "cod_cei": "7KY", "sercd": 15313, "pvcc": "Valganna", "ldct": "chiesa", "schedasint": 0, "ldcq": "sussidiaria", "pvci": "" }, "geometry": { "type": "Point", "coordinates": [ 8.82288, 45.90235 ] } },
{ "type": "Feature", "properties": { "id": "chiese_italia.4881", "denominazi": "S. Gemolo", "cod_cei": "7KY", "sercd": 15314, "pvcc": "Valganna", "ldct": "chiesa", "schedasint": 0, "ldcq": "sussidiaria", "pvci": "Via Roma" }, "geometry": { "type": "Point", "coordinates": [ 8.82755, 45.89842 ] } },
{ "type": "Feature", "properties": { "id": "chiese_italia.4882", "denominazi": "S. Giovanni Battista", "cod_cei": "7KY", "sercd": 15315, "pvcc": "Valganna", "ldct": "chiesa", "schedasint": 0, "ldcq": "sussidiaria", "pvci": "Via Ambrogio Chini" }, "geometry": { "type": "Point", "coordinates": [ 8.82289, 45.90235 ] } },
{ "type": "Feature", "properties": { "id": "chiese_italia.4883", "denominazi": "S. Gemolo M.", "cod_cei": "7KY", "sercd": 15316, "pvcc": "Valganna", "ldct": "chiesa", "schedasint": 0, "ldcq": "parrocchiale", "pvci": "Via Perego, 3" }, "geometry": { "type": "Point", "coordinates": [ 8.82261, 45.90248 ] } },
{ "type": "Feature", "properties": { "id": "chiese_italia.4902", "denominazi": "Madonna del Carmine", "cod_cei": "7JL", "sercd": 15339, "pvcc": "Solaro", "ldct": "chiesa", "schedasint": 0, "ldcq": "parrocchiale", "pvci": "Via Repubblica" }, "geometry": { "type": "Point", "coordinates": [ 9.0977, 45.61139 ] } },
{ "type": "Feature", "properties": { "id": "chiese_italia.4903", "denominazi": "Maria Assunta", "cod_cei": "7JM", "sercd": 15340, "pvcc": "Solaro", "ldct": "chiesa", "schedasint": 0, "ldcq": "sussidiaria", "pvci": "Cascina Emanuela" }, "geometry": { "type": "Point", "coordinates": [ 9.06446, 45.61581 ] } },
{ "type": "Feature", "properties": { "id": "chiese_italia.4904", "denominazi": "Madonna di S. Pietro", "cod_cei": "7JM", "sercd": 15341, "pvcc": "Solaro", "ldct": "chiesa", "schedasint": 0, "ldcq": "sussidiaria", "pvci": "Piazza S.Pietro" }, "geometry": { "type": "Point", "coordinates": [ 9.08636, 45.61033 ] } },
{ "type": "Feature", "properties": { "id": "chiese_italia.4946", "denominazi": "Madonna di Loreto (detta 'della Mora')", "cod_cei": "7GA", "sercd": 15388, "pvcc": "Tronzano Lago Maggiore", "ldct": "chiesa", "schedasint": 0, "ldcq": "sussidiaria", "pvci": "Via alla Mora" }, "geometry": { "type": "Point", "coordinates": [ 8.73427, 46.0888 ] } },
{ "type": "Feature", "properties": { "id": "chiese_italia.4947", "denominazi": "Chiesa di Santa Maria Assunta <Tronzano Lago Maggiore>", "cod_cei": "7GA", "sercd": 15389, "pvcc": "Tronzano Lago Maggiore", "ldct": "chiesa", "schedasint": 1, "ldcq": "sussidiaria", "pvci": "" }, "geometry": { "type": "Point", "coordinates": [ 8.73963, 46.09019 ] } },
{ "type": "Feature", "properties": { "id": "chiese_italia.4948", "denominazi": "S. Sebastiano", "cod_cei": "7GA", "sercd": 15390, "pvcc": "Tronzano Lago Maggiore", "ldct": "chiesa", "schedasint": 0, "ldcq": "sussidiaria", "pvci": "" }, "geometry": { "type": "Point", "coordinates": [ 8.73426, 46.0888 ] } },
{ "type": "Feature", "properties": { "id": "chiese_italia.4949", "denominazi": "Immacolata Concezione (detta 'della Scuola')", "cod_cei": "7GA", "sercd": 15391, "pvcc": "Tronzano Lago Maggiore", "ldct": "chiesa", "schedasint": 0, "ldcq": "sussidiaria", "pvci": "Via G.Marconi" }, "geometry": { "type": "Point", "coordinates": [ 8.73437, 46.08975 ] } },
{ "type": "Feature", "properties": { "id": "chiese_italia.4950", "denominazi": "S. Rocco", "cod_cei": "7GA", "sercd": 15392, "pvcc": "Tronzano Lago Maggiore", "ldct": "chiesa", "schedasint": 0, "ldcq": "sussidiaria", "pvci": "Via G.Marconi" }, "geometry": { "type": "Point", "coordinates": [ 8.73436, 46.08975 ] } },
{ "type": "Feature", "properties": { "id": "chiese_italia.4951", "denominazi": "Santi Cosma e Damiano", "cod_cei": "7KR", "sercd": 15393, "pvcc": "Uboldo", "ldct": "chiesa", "schedasint": 0, "ldcq": "sussidiaria", "pvci": "Via S.Cosma" }, "geometry": { "type": "Point", "coordinates": [ 9.00436, 45.61422 ] } },
{ "type": "Feature", "properties": { "id": "chiese_italia.4952", "denominazi": "S. Castriziano", "cod_cei": "7KR", "sercd": 15394, "pvcc": "Uboldo", "ldct": "chiesa", "schedasint": 0, "ldcq": "sussidiaria", "pvci": "Cascina Regusella" }, "geometry": { "type": "Point", "coordinates": [ 8.98113, 45.592 ] } },
{ "type": "Feature", "properties": { "id": "chiese_italia.4953", "denominazi": "B. Vergine delle Grazie", "cod_cei": "7KR", "sercd": 15395, "pvcc": "Uboldo", "ldct": "chiesa", "schedasint": 0, "ldcq": "sussidiaria", "pvci": "Cascina Girola" }, "geometry": { "type": "Point", "coordinates": [ 9.00619, 45.62514 ] } },
{ "type": "Feature", "properties": { "id": "chiese_italia.4961", "denominazi": "S. Onofrio E.", "cod_cei": "7KY", "sercd": 15405, "pvcc": "Valganna", "ldct": "chiesa", "schedasint": 0, "ldcq": "sussidiaria", "pvci": "Via IV Novembre" }, "geometry": { "type": "Point", "coordinates": [ 8.81326, 45.90881 ] } },
{ "type": "Feature", "properties": { "id": "chiese_italia.4962", "denominazi": "S. Cristoforo M.", "cod_cei": "7KX", "sercd": 15406, "pvcc": "Valganna", "ldct": "chiesa", "schedasint": 0, "ldcq": "parrocchiale", "pvci": "" }, "geometry": { "type": "Point", "coordinates": [ 8.82268, 45.92614 ] } },
{ "type": "Feature", "properties": { "id": "chiese_italia.4996", "denominazi": "S. Vittore", "cod_cei": "7LU", "sercd": 15446, "pvcc": "Varese", "ldct": "chiesa", "schedasint": 0, "ldcq": "parrocchiale", "pvci": "Via Conciliazione 1" }, "geometry": { "type": "Point", "coordinates": [ 8.81426, 45.816 ] } },
{ "type": "Feature", "properties": { "id": "chiese_italia.4997", "denominazi": "S. Antonio alla Motta", "cod_cei": "7LV", "sercd": 15449, "pvcc": "Varese", "ldct": "chiesa", "schedasint": 0, "ldcq": "sussidiaria", "pvci": "Piazza della Motta" }, "geometry": { "type": "Point", "coordinates": [ 8.82466, 45.81569 ] } },
{ "type": "Feature", "properties": { "id": "chiese_italia.4998", "denominazi": "S. Maria di Loreto", "cod_cei": "7LR", "sercd": 15450, "pvcc": "Varese", "ldct": "chiesa", "schedasint": 0, "ldcq": "sussidiaria", "pvci": "Loc. Loreto" }, "geometry": { "type": "Point", "coordinates": [ 8.8251, 45.82058 ] } },
{ "type": "Feature", "properties": { "id": "chiese_italia.4999", "denominazi": "Antica Chiesa di S. Silvestro", "cod_cei": "7LR", "sercd": 15451, "pvcc": "Varese", "ldct": "chiesa", "schedasint": 0, "ldcq": "parrocchiale", "pvci": "Via Stoppani, 1" }, "geometry": { "type": "Point", "coordinates": [ 8.82892, 45.79933 ] } },
{ "type": "Feature", "properties": { "id": "chiese_italia.5000", "denominazi": "S. Rocco", "cod_cei": "7LU", "sercd": 15453, "pvcc": "Varese", "ldct": "chiesa", "schedasint": 0, "ldcq": "sussidiaria", "pvci": "Via Milazzo" }, "geometry": { "type": "Point", "coordinates": [ 8.81283, 45.81492 ] } },
{ "type": "Feature", "properties": { "id": "chiese_italia.5001", "denominazi": "Madonna della Speranza e della Pace", "cod_cei": "7LA", "sercd": 15454, "pvcc": "Varese", "ldct": "chiesa", "schedasint": 0, "ldcq": "parrocchiale", "pvci": "Via Salvore" }, "geometry": { "type": "Point", "coordinates": [ 8.84203, 45.81433 ] } },
{ "type": "Feature", "properties": { "id": "chiese_italia.5002", "denominazi": "S. Giovanni Battista", "cod_cei": "7LV", "sercd": 15456, "pvcc": "Varese", "ldct": "chiesa", "schedasint": 0, "ldcq": "sussidiaria", "pvci": "Battistero Monumentale" }, "geometry": { "type": "Point", "coordinates": [ 8.82511, 45.82058 ] } },
{ "type": "Feature", "properties": { "id": "chiese_italia.5003", "denominazi": "S. Vittore M.", "cod_cei": "7LV", "sercd": 15457, "pvcc": "Varese", "ldct": "chiesa", "schedasint": 0, "ldcq": "parrocchiale", "pvci": "Piazza Canonica, 8" }, "geometry": { "type": "Point", "coordinates": [ 8.82774, 45.81849 ] } },
{ "type": "Feature", "properties": { "id": "chiese_italia.5004", "denominazi": "S. Martino", "cod_cei": "7LV", "sercd": 15458, "pvcc": "Varese", "ldct": "chiesa", "schedasint": 0, "ldcq": "sussidiaria", "pvci": "P.zza Cacciatori delle Alpi" }, "geometry": { "type": "Point", "coordinates": [ 8.82781, 45.82139 ] } },
{ "type": "Feature", "properties": { "id": "chiese_italia.5005", "denominazi": "S. Maria degli Angeli", "cod_cei": "7LM", "sercd": 15459, "pvcc": "Varese", "ldct": "chiesa", "schedasint": 0, "ldcq": "parrocchiale", "pvci": "Via S. Gottardo, 37" }, "geometry": { "type": "Point", "coordinates": [ 8.80592, 45.86569 ] } },
{ "type": "Feature", "properties": { "id": "chiese_italia.5006", "denominazi": "S. Gottardo", "cod_cei": "7LM", "sercd": 15460, "pvcc": "Varese", "ldct": "chiesa", "schedasint": 0, "ldcq": "sussidiaria", "pvci": "via S.Gottardo" }, "geometry": { "type": "Point", "coordinates": [ 8.80568, 45.86586 ] } },
{ "type": "Feature", "properties": { "id": "chiese_italia.5007", "denominazi": "S. Maria del Monte", "cod_cei": "7LN", "sercd": 15461, "pvcc": "Varese", "ldct": "chiesa", "schedasint": 0, "ldcq": "parrocchiale", "pvci": "" }, "geometry": { "type": "Point", "coordinates": [ 8.79356, 45.85997 ] } },
{ "type": "Feature", "properties": { "id": "chiese_italia.5008", "denominazi": "Santi Fermo e Rustico", "cod_cei": "7LW", "sercd": 15462, "pvcc": "Varese", "ldct": "chiesa", "schedasint": 0, "ldcq": "parrocchiale", "pvci": "Via Abbazia, 26" }, "geometry": { "type": "Point", "coordinates": [ 8.84631, 45.83089 ] } },
{ "type": "Feature", "properties": { "id": "chiese_italia.5009", "denominazi": "S. Ambrogio", "cod_cei": "7LZ", "sercd": 15463, "pvcc": "Varese", "ldct": "chiesa", "schedasint": 0, "ldcq": "sussidiaria", "pvci": "Via Magellano" }, "geometry": { "type": "Point", "coordinates": [ 8.78701, 45.81958 ] } },
{ "type": "Feature", "properties": { "id": "chiese_italia.5010", "denominazi": "S. Ambrogio", "cod_cei": "7LC", "sercd": 15464, "pvcc": "Varese", "ldct": "chiesa", "schedasint": 0, "ldcq": "parrocchiale", "pvci": "" }, "geometry": { "type": "Point", "coordinates": [ 8.80764, 45.84164 ] } },
{ "type": "Feature", "properties": { "id": "chiese_italia.5011", "denominazi": "S. Agostino V. e Dott.", "cod_cei": "7LB", "sercd": 15466, "pvcc": "Varese", "ldct": "chiesa", "schedasint": 0, "ldcq": "parrocchiale", "pvci": "Via Aquilea, 20" }, "geometry": { "type": "Point", "coordinates": [ 8.84528, 45.82664 ] } },
{ "type": "Feature", "properties": { "id": "chiese_italia.5012", "denominazi": "S. Stefano", "cod_cei": "7LS", "sercd": 15467, "pvcc": "Varese", "ldct": "chiesa", "schedasint": 0, "ldcq": "parrocchiale", "pvci": "" }, "geometry": { "type": "Point", "coordinates": [ 8.79188, 45.84569 ] } },
{ "type": "Feature", "properties": { "id": "chiese_italia.5013", "denominazi": "S. Teresa di Ges√π Bambino", "cod_cei": "7LT", "sercd": 15470, "pvcc": "Varese", "ldct": "chiesa", "schedasint": 0, "ldcq": "parrocchiale", "pvci": "Via Carnia,159" }, "geometry": { "type": "Point", "coordinates": [ 8.84894, 45.80542 ] } },
{ "type": "Feature", "properties": { "id": "chiese_italia.5014", "denominazi": "S. Massimiliano Kolbe", "cod_cei": "7LO", "sercd": 15471, "pvcc": "Varese", "ldct": "chiesa", "schedasint": 0, "ldcq": "parrocchiale", "pvci": "Viale Aguggiari, 140" }, "geometry": { "type": "Point", "coordinates": [ 8.81665, 45.83686 ] } },
{ "type": "Feature", "properties": { "id": "chiese_italia.5015", "denominazi": "Santi Gervaso e Protaso", "cod_cei": "7L#", "sercd": 15472, "pvcc": "Veddasca", "ldct": "chiesa", "schedasint": 0, "ldcq": "sussidiaria", "pvci": "Via Chiesa" }, "geometry": { "type": "Point", "coordinates": [ 8.77181, 46.0375 ] } },
{ "type": "Feature", "properties": { "id": "chiese_italia.5016", "denominazi": "Nativit√† di Maria Vergine", "cod_cei": "7L#", "sercd": 15473, "pvcc": "Veddasca", "ldct": "chiesa", "schedasint": 0, "ldcq": "sussidiaria", "pvci": "Via Chiesa" }, "geometry": { "type": "Point", "coordinates": [ 8.77181, 46.0375 ] } },
{ "type": "Feature", "properties": { "id": "chiese_italia.5017", "denominazi": "Madonna delle Nevi", "cod_cei": "7L#", "sercd": 15474, "pvcc": "Veddasca", "ldct": "chiesa", "schedasint": 0, "ldcq": "sussidiaria", "pvci": "Loc.Forcora" }, "geometry": { "type": "Point", "coordinates": [ 8.7782, 46.07625 ] } },
{ "type": "Feature", "properties": { "id": "chiese_italia.5018", "denominazi": "S. Silvestro", "cod_cei": "78A", "sercd": 15475, "pvcc": "Veddasca", "ldct": "chiesa", "schedasint": 0, "ldcq": "sussidiaria", "pvci": "Pz.4 Novembre - Loc. Cadero" }, "geometry": { "type": "Point", "coordinates": [ 8.77365, 46.05677 ] } },
{ "type": "Feature", "properties": { "id": "chiese_italia.5019", "denominazi": "Madonna degli Angeli", "cod_cei": "7L#", "sercd": 15476, "pvcc": "Veddasca", "ldct": "chiesa", "schedasint": 0, "ldcq": "sussidiaria", "pvci": "Loc.Cangili" }, "geometry": { "type": "Point", "coordinates": [ 8.81253, 46.09053 ] } },
{ "type": "Feature", "properties": { "id": "chiese_italia.5020", "denominazi": "S. Giuseppe", "cod_cei": "7L#", "sercd": 15477, "pvcc": "Veddasca", "ldct": "chiesa", "schedasint": 0, "ldcq": "sussidiaria", "pvci": "" }, "geometry": { "type": "Point", "coordinates": [ 8.79266, 46.07024 ] } },
{ "type": "Feature", "properties": { "id": "chiese_italia.5021", "denominazi": "S. Maria Assunta", "cod_cei": "7L#", "sercd": 15478, "pvcc": "Veddasca", "ldct": "chiesa", "schedasint": 0, "ldcq": "sussidiaria", "pvci": "Via per Armio" }, "geometry": { "type": "Point", "coordinates": [ 8.79267, 46.07024 ] } },
{ "type": "Feature", "properties": { "id": "chiese_italia.5022", "denominazi": "S. Lorenzo", "cod_cei": "7L#", "sercd": 15479, "pvcc": "Veddasca", "ldct": "chiesa", "schedasint": 0, "ldcq": "parrocchiale", "pvci": "Via Pace - Fraz. Armio" }, "geometry": { "type": "Point", "coordinates": [ 8.79985, 46.07157 ] } },
{ "type": "Feature", "properties": { "id": "chiese_italia.5039", "denominazi": "Santi Filippo e Giacomo (detta Mad.del Mulino V.)", "cod_cei": "7ME", "sercd": 15497, "pvcc": "Vernate", "ldct": "chiesa", "schedasint": 0, "ldcq": "sussidiaria", "pvci": "Strada Comunale Papiago" }, "geometry": { "type": "Point", "coordinates": [ 9.06038, 45.31594 ] } },
{ "type": "Feature", "properties": { "id": "chiese_italia.5040", "denominazi": "S. Maria Assunta", "cod_cei": "7MD", "sercd": 15498, "pvcc": "Vernate", "ldct": "chiesa", "schedasint": 0, "ldcq": "parrocchiale", "pvci": "Via Marconi 36" }, "geometry": { "type": "Point", "coordinates": [ 9.02135, 45.33017 ] } },
{ "type": "Feature", "properties": { "id": "chiese_italia.5041", "denominazi": "S. Maria Nascente", "cod_cei": "7ME", "sercd": 15499, "pvcc": "Vernate", "ldct": "chiesa", "schedasint": 0, "ldcq": "parrocchiale", "pvci": "P.zza De Gasperi 8" }, "geometry": { "type": "Point", "coordinates": [ 9.03837, 45.31144 ] } },
{ "type": "Feature", "properties": { "id": "chiese_italia.5042", "denominazi": "S. Eufemia", "cod_cei": "7MF", "sercd": 15500, "pvcc": "Vernate", "ldct": "chiesa", "schedasint": 0, "ldcq": "sussidiaria", "pvci": "Via Leonardo Da Vinci 21" }, "geometry": { "type": "Point", "coordinates": [ 9.06162, 45.3145 ] } },
{ "type": "Feature", "properties": { "id": "chiese_italia.5043", "denominazi": "Santi Cosma e Damiano", "cod_cei": "7MF", "sercd": 15501, "pvcc": "Vernate", "ldct": "chiesa", "schedasint": 0, "ldcq": "parrocchiale", "pvci": "P.zza S.Mauro 8" }, "geometry": { "type": "Point", "coordinates": [ 9.06037, 45.31594 ] } },
{ "type": "Feature", "properties": { "id": "chiese_italia.5044", "denominazi": "San Martino", "cod_cei": "71B", "sercd": 15502, "pvcc": "Vernate", "ldct": "chiesa", "schedasint": 0, "ldcq": "sussidiaria", "pvci": "Via Ospedale Maggiore" }, "geometry": { "type": "Point", "coordinates": [ 9.06039, 45.31594 ] } },
{ "type": "Feature", "properties": { "id": "chiese_italia.5061", "denominazi": "Santi Vincenzo e Bernardo", "cod_cei": "7M$", "sercd": 15523, "pvcc": "Zibido San Giacomo", "ldct": "chiesa", "schedasint": 0, "ldcq": "parrocchiale", "pvci": "Via Asilo Salterio" }, "geometry": { "type": "Point", "coordinates": [ 9.1383, 45.36686 ] } },
{ "type": "Feature", "properties": { "id": "chiese_italia.5062", "denominazi": "S. Giacomo", "cod_cei": "7M_", "sercd": 15524, "pvcc": "Zibido San Giacomo", "ldct": "chiesa", "schedasint": 0, "ldcq": "parrocchiale", "pvci": "P.zza Roma 22" }, "geometry": { "type": "Point", "coordinates": [ 9.10589, 45.36 ] } },
{ "type": "Feature", "properties": { "id": "chiese_italia.5063", "denominazi": "B.V. Assunta (ex Chiesa Parr.)", "cod_cei": "7M_", "sercd": 15525, "pvcc": "Zibido San Giacomo", "ldct": "chiesa", "schedasint": 0, "ldcq": "sussidiaria", "pvci": "Via S.Giacomo 3" }, "geometry": { "type": "Point", "coordinates": [ 9.11337, 45.3675 ] } },
{ "type": "Feature", "properties": { "id": "chiese_italia.5064", "denominazi": "S. Michele", "cod_cei": "6#O", "sercd": 15526, "pvcc": "Baranzate", "ldct": "chiesa", "schedasint": 0, "ldcq": "sussidiaria", "pvci": "Via Gorizia 99" }, "geometry": { "type": "Point", "coordinates": [ 9.12045, 45.52219 ] } },
{ "type": "Feature", "properties": { "id": "chiese_italia.5075", "denominazi": "SS. Trinit√†", "cod_cei": "7L!", "sercd": 15541, "pvcc": "Varese", "ldct": "chiesa", "schedasint": 0, "ldcq": "parrocchiale", "pvci": "Via Gaggio, 2" }, "geometry": { "type": "Point", "coordinates": [ 8.81037, 45.79358 ] } },
{ "type": "Feature", "properties": { "id": "chiese_italia.5076", "denominazi": "S. Sebastiano", "cod_cei": "7LQ", "sercd": 15543, "pvcc": "Varese", "ldct": "chiesa", "schedasint": 0, "ldcq": "parrocchiale", "pvci": "Via S. Sebastiano" }, "geometry": { "type": "Point", "coordinates": [ 8.82033, 45.84931 ] } },
{ "type": "Feature", "properties": { "id": "chiese_italia.5077", "denominazi": "Santi MM.Nazaro e Celso", "cod_cei": "7LY", "sercd": 15544, "pvcc": "Varese", "ldct": "chiesa", "schedasint": 0, "ldcq": "parrocchiale", "pvci": "Via Ponti 140" }, "geometry": { "type": "Point", "coordinates": [ 8.76212, 45.81408 ] } },
{ "type": "Feature", "properties": { "id": "chiese_italia.5078", "denominazi": "S. Michele Arc.", "cod_cei": "7LP", "sercd": 15545, "pvcc": "Varese", "ldct": "chiesa", "schedasint": 0, "ldcq": "parrocchiale", "pvci": "P.zza Buzzi,2\/A" }, "geometry": { "type": "Point", "coordinates": [ 8.82935, 45.8125 ] } },
{ "type": "Feature", "properties": { "id": "chiese_italia.5079", "denominazi": "S. Carlo Borromeo", "cod_cei": "7LG", "sercd": 15547, "pvcc": "Varese", "ldct": "chiesa", "schedasint": 0, "ldcq": "parrocchiale", "pvci": "Via Giannone,11" }, "geometry": { "type": "Point", "coordinates": [ 8.84126, 45.80008 ] } },
{ "type": "Feature", "properties": { "id": "chiese_italia.5080", "denominazi": "S. Giovanni Battista", "cod_cei": "7LI", "sercd": 15549, "pvcc": "Varese", "ldct": "chiesa", "schedasint": 0, "ldcq": "parrocchiale", "pvci": "Via Astico, 14" }, "geometry": { "type": "Point", "coordinates": [ 8.79481, 45.83792 ] } },
{ "type": "Feature", "properties": { "id": "chiese_italia.5081", "denominazi": "Santi Pietro e Paolo", "cod_cei": "7L_", "sercd": 15550, "pvcc": "Varese", "ldct": "chiesa", "schedasint": 0, "ldcq": "parrocchiale", "pvci": "P.zza XXVI Maggio" }, "geometry": { "type": "Point", "coordinates": [ 8.81852, 45.82086 ] } },
{ "type": "Feature", "properties": { "id": "chiese_italia.5082", "denominazi": "S. Grato", "cod_cei": "7LL", "sercd": 15551, "pvcc": "Varese", "ldct": "chiesa", "schedasint": 0, "ldcq": "parrocchiale", "pvci": "Via G. Macchi 5" }, "geometry": { "type": "Point", "coordinates": [ 8.78886, 45.80594 ] } },
{ "type": "Feature", "properties": { "id": "chiese_italia.5083", "denominazi": "S. Giorgio", "cod_cei": "7LH", "sercd": 15553, "pvcc": "Varese", "ldct": "chiesa", "schedasint": 0, "ldcq": "parrocchiale", "pvci": "Via Biumi, 12" }, "geometry": { "type": "Point", "coordinates": [ 8.82972, 45.82647 ] } },
{ "type": "Feature", "properties": { "id": "chiese_italia.5084", "denominazi": "Santi MM. Evasio e Stefano", "cod_cei": "7LX", "sercd": 15556, "pvcc": "Varese", "ldct": "chiesa", "schedasint": 0, "ldcq": "parrocchiale", "pvci": "Via Parrocchiale, 1" }, "geometry": { "type": "Point", "coordinates": [ 8.85205, 45.7905 ] } },
{ "type": "Feature", "properties": { "id": "chiese_italia.5085", "denominazi": "S. Giuseppe", "cod_cei": "7LK", "sercd": 15562, "pvcc": "Varese", "ldct": "chiesa", "schedasint": 0, "ldcq": "parrocchiale", "pvci": "Via S. Caterina,12" }, "geometry": { "type": "Point", "coordinates": [ 8.80273, 45.84736 ] } },
{ "type": "Feature", "properties": { "id": "chiese_italia.5086", "denominazi": "S. Carlo Borromeo", "cod_cei": "7LF", "sercd": 15563, "pvcc": "Varese", "ldct": "chiesa", "schedasint": 0, "ldcq": "parrocchiale", "pvci": "Via Contenbiancamano" }, "geometry": { "type": "Point", "coordinates": [ 8.78348, 45.81333 ] } },
{ "type": "Feature", "properties": { "id": "chiese_italia.5087", "denominazi": "S. Ambrogio", "cod_cei": "7LD", "sercd": 15564, "pvcc": "Varese", "ldct": "chiesa", "schedasint": 0, "ldcq": "parrocchiale", "pvci": "P.zza Biroldi, 3" }, "geometry": { "type": "Point", "coordinates": [ 8.8355, 45.81469 ] } },
{ "type": "Feature", "properties": { "id": "chiese_italia.5088", "denominazi": "Santi Pietro e Paolo", "cod_cei": "7LZ", "sercd": 15566, "pvcc": "Varese", "ldct": "chiesa", "schedasint": 0, "ldcq": "parrocchiale", "pvci": "Via Bolchini, 5" }, "geometry": { "type": "Point", "coordinates": [ 8.79996, 45.83014 ] } },
{ "type": "Feature", "properties": { "id": "chiese_italia.5133", "denominazi": "Nativit√† di Maria Vergine", "cod_cei": "7MZ", "sercd": 15625, "pvcc": "Zibido San Giacomo", "ldct": "chiesa", "schedasint": 0, "ldcq": "parrocchiale", "pvci": "Via Veneto 9" }, "geometry": { "type": "Point", "coordinates": [ 9.12814, 45.35066 ] } },
{ "type": "Feature", "properties": { "id": "chiese_italia.5134", "denominazi": "Santi Pietro e Paolo", "cod_cei": "7M!", "sercd": 15626, "pvcc": "Zibido San Giacomo", "ldct": "chiesa", "schedasint": 0, "ldcq": "parrocchiale", "pvci": "" }, "geometry": { "type": "Point", "coordinates": [ 9.1069, 45.36017 ] } },
{ "type": "Feature", "properties": { "id": "chiese_italia.5139", "denominazi": "S. Giuseppe", "cod_cei": "7I#", "sercd": 15631, "pvcc": "Sesto San Giovanni", "ldct": "cappella", "schedasint": 0, "ldcq": "ospedaliera", "pvci": "Via Campanella 8\/10" }, "geometry": { "type": "Point", "coordinates": [ 9.25835, 45.55265 ] } },
{ "type": "Feature", "properties": { "id": "chiese_italia.5143", "denominazi": "Chiesa interna Istituto F.lli Molina", "cod_cei": "7LG", "sercd": 15635, "pvcc": "Varese", "ldct": "cappella", "schedasint": 0, "ldcq": "ospedaliera", "pvci": "Rione S.Carlo" }, "geometry": { "type": "Point", "coordinates": [ 8.82508, 45.82058 ] } },
{ "type": "Feature", "properties": { "id": "chiese_italia.5144", "denominazi": "Cappella Casa di Riposo Gianetti", "cod_cei": "7IC", "sercd": 15636, "pvcc": "Saronno", "ldct": "cappella", "schedasint": 0, "ldcq": "ospedaliera", "pvci": "Via Larga 1" }, "geometry": { "type": "Point", "coordinates": [ 9.04663, 45.63582 ] } },
{ "type": "Feature", "properties": { "id": "chiese_italia.5151", "denominazi": "S. Carlo", "cod_cei": "6-P", "sercd": 15643, "pvcc": "Busto Arsizio", "ldct": "cappella", "schedasint": 0, "ldcq": "ospedaliera", "pvci": "Via Gaudenzio Ferrari" }, "geometry": { "type": "Point", "coordinates": [ 8.85457, 45.61528 ] } },
{ "type": "Feature", "properties": { "id": "chiese_italia.5152", "denominazi": "Cappella dell'Istituto 'La Provvidenza'", "cod_cei": "6-P", "sercd": 15644, "pvcc": "Busto Arsizio", "ldct": "cappella", "schedasint": 0, "ldcq": "ospedaliera", "pvci": "Via S.Giovanni Bosco" }, "geometry": { "type": "Point", "coordinates": [ 8.85449, 45.61658 ] } },
{ "type": "Feature", "properties": { "id": "chiese_italia.5155", "denominazi": "Chiesa Istituto Cottolengo", "cod_cei": "7E_", "sercd": 15647, "pvcc": "Novate Milanese", "ldct": "cappella", "schedasint": 0, "ldcq": "ospedaliera", "pvci": "Via Bollate 9" }, "geometry": { "type": "Point", "coordinates": [ 9.13613, 45.53386 ] } },
{ "type": "Feature", "properties": { "id": "chiese_italia.21707", "denominazi": "Chiesa di Sant'Ilario di Poitiers", "cod_cei": "3PM", "sercd": 42602, "pvcc": "Bedero Valcuvia", "ldct": "chiesa", "schedasint": 0, "ldcq": "parrocchiale", "pvci": "" }, "geometry": { "type": "Point", "coordinates": [ 8.79429, 45.91414 ] } },
{ "type": "Feature", "properties": { "id": "chiese_italia.21728", "denominazi": "Chiesa dei Santi Pietro e Paolo", "cod_cei": "3P-", "sercd": 42636, "pvcc": "Brinzio", "ldct": "chiesa", "schedasint": 0, "ldcq": "parrocchiale", "pvci": "" }, "geometry": { "type": "Point", "coordinates": [ 8.79068, 45.88819 ] } },
{ "type": "Feature", "properties": { "id": "chiese_italia.21729", "denominazi": "Chiesa di Sant'Andrea", "cod_cei": "3Q0", "sercd": 42637, "pvcc": "Brunate", "ldct": "chiesa", "schedasint": 0, "ldcq": "parrocchiale", "pvci": "" }, "geometry": { "type": "Point", "coordinates": [ 9.09673, 45.8192 ] } },
{ "type": "Feature", "properties": { "id": "chiese_italia.21731", "denominazi": "Chiesa dei Santi Fedele e Silvestro", "cod_cei": "3Q6", "sercd": 42642, "pvcc": "Cadegliano-Viconago", "ldct": "chiesa", "schedasint": 0, "ldcq": "parrocchiale", "pvci": "" }, "geometry": { "type": "Point", "coordinates": [ 8.77365, 45.96372 ] } },
{ "type": "Feature", "properties": { "id": "chiese_italia.21732", "denominazi": "Chiesa di San Giovanni Battista", "cod_cei": "3Q4", "sercd": 42643, "pvcc": "Cadegliano-Viconago", "ldct": "chiesa", "schedasint": 0, "ldcq": "parrocchiale", "pvci": "" }, "geometry": { "type": "Point", "coordinates": [ 8.83988, 45.96636 ] } },
{ "type": "Feature", "properties": { "id": "chiese_italia.21733", "denominazi": "Chiesa di Santa Maria Assunta", "cod_cei": "3Q5", "sercd": 42644, "pvcc": "Cadegliano-Viconago", "ldct": "chiesa", "schedasint": 0, "ldcq": "parrocchiale", "pvci": "" }, "geometry": { "type": "Point", "coordinates": [ 8.84394, 45.95872 ] } },
{ "type": "Feature", "properties": { "id": "chiese_italia.21737", "denominazi": "Chiesa dei Santi Giacomo e Filippo", "cod_cei": "3QG", "sercd": 42658, "pvcc": "Carate Urio", "ldct": "chiesa", "schedasint": 0, "ldcq": "parrocchiale", "pvci": "" }, "geometry": { "type": "Point", "coordinates": [ 9.14121, 45.88446 ] } },
{ "type": "Feature", "properties": { "id": "chiese_italia.21738", "denominazi": "Chiesa dei Santi Quirico e Giulitta", "cod_cei": "3QH", "sercd": 42659, "pvcc": "Carate Urio", "ldct": "chiesa", "schedasint": 0, "ldcq": "parrocchiale", "pvci": "" }, "geometry": { "type": "Point", "coordinates": [ 9.13759, 45.87861 ] } },
{ "type": "Feature", "properties": { "id": "chiese_italia.21745", "denominazi": "Chiesa di San Michele Arcangelo", "cod_cei": "3QV", "sercd": 42679, "pvcc": "Cavallasca", "ldct": "chiesa", "schedasint": 0, "ldcq": "parrocchiale", "pvci": "" }, "geometry": { "type": "Point", "coordinates": [ 9.03199, 45.81469 ] } },
{ "type": "Feature", "properties": { "id": "chiese_italia.21748", "denominazi": "Chiesa del Santissimo Redentore", "cod_cei": "3Q#", "sercd": 42687, "pvcc": "Cernobbio", "ldct": "chiesa", "schedasint": 0, "ldcq": "parrocchiale", "pvci": "" }, "geometry": { "type": "Point", "coordinates": [ 9.07791, 45.841 ] } },
{ "type": "Feature", "properties": { "id": "chiese_italia.21749", "denominazi": "Chiesa di San Michele", "cod_cei": "3Q!", "sercd": 42688, "pvcc": "Cernobbio", "ldct": "chiesa", "schedasint": 0, "ldcq": "parrocchiale", "pvci": "" }, "geometry": { "type": "Point", "coordinates": [ 9.07951, 45.85084 ] } },
{ "type": "Feature", "properties": { "id": "chiese_italia.21750", "denominazi": "Chiesa di Santo Stefano", "cod_cei": "3Q@", "sercd": 42689, "pvcc": "Cernobbio", "ldct": "chiesa", "schedasint": 0, "ldcq": "parrocchiale", "pvci": "" }, "geometry": { "type": "Point", "coordinates": [ 9.06907, 45.85378 ] } },