{
"type": "FeatureCollection",
"crs": { "type": "name", "properties": { "name": "urn:ogc:def:crs:OGC:1.3:CRS84" } },
"features": [
{ "type": "Feature", "properties": { "markername": "SCUOLA ELEM. CALVINO", "id": 7457, "address": "VIA BRODOLINI G.  45, NOVATE MILANESE" }, "geometry": { "type": "Point", "coordinates": [ 9.13941, 45.53867 ] } },
{ "type": "Feature", "properties": { "markername": "SCUOLA INFANZIA COLLODI", "id": 5571, "address": "VIA BOCCACCIO G.  312, SESTO SAN GIOVANNI" }, "geometry": { "type": "Point", "coordinates": [ 9.23908, 45.54564 ] } },
{ "type": "Feature", "properties": { "markername": "SCUOLA MATERNA ANDERSEN", "id": 5665, "address": "VIA BRODOLINI G.  45, NOVATE MILANESE" }, "geometry": { "type": "Point", "coordinates": [ 9.13941, 45.53867 ] } },
{ "type": "Feature", "properties": { "markername": "CENTRO RICREATIVO DIURNO - VIA MOGNANO", "id": 5685, "address": "VIA MOGNANO 3, COMO" }, "geometry": { "type": "Point", "coordinates": [ 9.04942, 45.83421 ] } },
{ "type": "Feature", "properties": { "markername": "C.R.D. SCUOLA MEDIA MONTALE", "id": 5701, "address": "VIA VERDI GIUSEPPE  23, BOLLATE" }, "geometry": { "type": "Point", "coordinates": [ 9.11029, 45.54766 ] } },
{ "type": "Feature", "properties": { "markername": "CENTRO DI AGGREGAZIONE GIOVANILE PARROCCHIA SAN M. KOLBE", "id": 5783, "address": "VIALE AGUGGIARI PADRE G.B.  140, VARESE" }, "geometry": { "type": "Point", "coordinates": [ 8.81667, 45.8369 ] } },
{ "type": "Feature", "properties": { "markername": "CENTRO RICREATIVO DIURNO - VIA ALCIATO", "id": 5876, "address": "VIA ALCIATO, COMO" }, "geometry": { "type": "Point", "coordinates": [ 9.08693, 45.79876 ] } },
{ "type": "Feature", "properties": { "markername": "C.R.D. SCUOLA INFANZIA CORRIDORI", "id": 5878, "address": "VIA CORRIDORI 38, PADERNO DUGNANO" }, "geometry": { "type": "Point", "coordinates": [ 9.1437, 45.57354 ] } },
{ "type": "Feature", "properties": { "markername": "CAG", "id": 5930, "address": "VIA RAINOLDI C.  9, VARESE" }, "geometry": { "type": "Point", "coordinates": [ 8.8304, 45.8194 ] } },
{ "type": "Feature", "properties": { "markername": "C.R.D. LEONARDO DA VINCI", "id": 5937, "address": "VIA FRATELLANZA 13, BOLLATE" }, "geometry": { "type": "Point", "coordinates": [ 9.11857, 45.54224 ] } },
{ "type": "Feature", "properties": { "markername": "C.R.D. SCUOLA ELEMENTARE SENAGO", "id": 5938, "address": "VIA LIBERAZIONE, SENAGO" }, "geometry": { "type": "Point", "coordinates": [ 9.12772, 45.58127 ] } },
{ "type": "Feature", "properties": { "markername": "CENTRO RICREATIVO DIURNO", "id": 6007, "address": "VIA TOBAGI, VERNATE" }, "geometry": { "type": "Point", "coordinates": [ 9.03978, 45.3122 ] } },
{ "type": "Feature", "properties": { "markername": "COLONIA DI SAN BERNARDO", "id": 6037, "address": "LOCALITA' SAN BERNARDO, PONTE IN VALTELLINA" }, "geometry": { "type": "Point", "coordinates": [ 9.97049, 46.17967 ] } },
{ "type": "Feature", "properties": { "markername": "C.A.G. TAPPETO VOLANTE", "id": 6043, "address": "VIA OSPITALETTO 5, BOLLATE" }, "geometry": { "type": "Point", "coordinates": [ 9.14282, 45.54695 ] } },
{ "type": "Feature", "properties": { "markername": "C.R.D. SCUOLA DELL'INFANZIA AURORA", "id": 6053, "address": "VIA MADONNA 10, BOLLATE" }, "geometry": { "type": "Point", "coordinates": [ 9.14037, 45.55938 ] } },
{ "type": "Feature", "properties": { "markername": "CENTRO RICREATIVO DIURNO - VIA GIUSSANI", "id": 6064, "address": "VIA GIUSSANI 81, COMO" }, "geometry": { "type": "Point", "coordinates": [ 9.07052, 45.78485 ] } },
{ "type": "Feature", "properties": { "markername": "CENTRO RICREATIVO DIURNO - VIA ZEZIO", "id": 6095, "address": "VIA ZEZIO 27, COMO" }, "geometry": { "type": "Point", "coordinates": [ 9.09243, 45.81091 ] } },
{ "type": "Feature", "properties": { "markername": "CENTRO RICREATIVO PER MINORI", "id": 6103, "address": "VIA SALITA CAPPUCCINI 27, COMO" }, "geometry": { "type": "Point", "coordinates": [ 9.09683, 45.79666 ] } },
{ "type": "Feature", "properties": { "markername": "SCUOLA INFANZIA MARZABOTTO", "id": 6118, "address": "VIA MARZABOTTO 50, SESTO SAN GIOVANNI" }, "geometry": { "type": "Point", "coordinates": [ 9.25207, 45.53354 ] } },
{ "type": "Feature", "properties": { "markername": "C.R.D. SCUOLA MATERNA APORTI SENAGO", "id": 6123, "address": "VIA LIBERAZIONE, SENAGO" }, "geometry": { "type": "Point", "coordinates": [ 9.12772, 45.58127 ] } },
{ "type": "Feature", "properties": { "markername": "SCUOLA INFANZIA \"L. PICCHI\"", "id": 6167, "address": "VIA TERRANEO 3, COMO" }, "geometry": { "type": "Point", "coordinates": [ 9.08905, 45.7781 ] } },
{ "type": "Feature", "properties": { "markername": "C.R.D. CENTRO POLIFUNZIONALE MASCAGNI", "id": 6257, "address": "VIA NERUDA PABLO  2, SENAGO" }, "geometry": { "type": "Point", "coordinates": [ 9.10251, 45.57582 ] } },
{ "type": "Feature", "properties": { "markername": "CENTRO DI AGGRAGAZIONE GIOVANILE  \"OASI\"", "id": 6264, "address": "VIA NEGRETTI 4, COMO" }, "geometry": { "type": "Point", "coordinates": [ 9.06812, 45.7865 ] } },
{ "type": "Feature", "properties": { "markername": "C.R.D. VIA VIVALDI", "id": 6318, "address": "VIA VIVALDI ANTONIO, PADERNO DUGNANO" }, "geometry": { "type": "Point", "coordinates": [ 9.18827, 45.56966 ] } },
{ "type": "Feature", "properties": { "markername": "C.R.D. SCUOLA MATERNA COLLODI", "id": 6322, "address": "VIA LORENZINI CARLO  1, BOLLATE" }, "geometry": { "type": "Point", "coordinates": [ 9.13208, 45.54709 ] } },
{ "type": "Feature", "properties": { "markername": "C.R.D. SCUOLA ELEMENTARE MONTESSORI", "id": 6350, "address": "VIA MONTESSORI MARIA  1, BOLLATE" }, "geometry": { "type": "Point", "coordinates": [ 9.12335, 45.54493 ] } },
{ "type": "Feature", "properties": { "markername": "C.R.D.  SCUOLA PRIMARIA IQBAL MASIH", "id": 6354, "address": "VIA COMO 7, BOLLATE" }, "geometry": { "type": "Point", "coordinates": [ 9.14222, 45.56219 ] } },
{ "type": "Feature", "properties": { "markername": "CENTRO RICREATIVO DIURNO - VIA PALMA", "id": 6371, "address": "VIA PALMA, COMO" }, "geometry": { "type": "Point", "coordinates": [ 9.06856, 45.78754 ] } },
{ "type": "Feature", "properties": { "markername": "CENTRO RICREATIVO DIURNO PER MINORI COMUNALE", "id": 6373, "address": "VIA ROMA 26, BARASSO" }, "geometry": { "type": "Point", "coordinates": [ 8.75784, 45.84011 ] } },
{ "type": "Feature", "properties": { "markername": "C.R.D. SCUOLA MATERNA ALLEGRAMENTE INSIEME", "id": 6397, "address": "VIA CERESIO, GARBAGNATE MILANESE" }, "geometry": { "type": "Point", "coordinates": [ 9.07163, 45.56639 ] } },
{ "type": "Feature", "properties": { "markername": "CENTRO RICREATIVO DIURNO - VIA FIUME", "id": 6409, "address": "VIA FIUME 2, COMO" }, "geometry": { "type": "Point", "coordinates": [ 9.09316, 45.80784 ] } },
{ "type": "Feature", "properties": { "markername": "COMUNE DI VERNATE", "id": 6477, "address": "PIAZZA IV NOVEMBRE 2, VERNATE" }, "geometry": { "type": "Point", "coordinates": [ 9.05929, 45.31624 ] } },
{ "type": "Feature", "properties": { "markername": "CRD", "id": 6488, "address": "VIA GIOVANNI XXIII, CESATE" }, "geometry": { "type": "Point", "coordinates": [ 9.07818, 45.58895 ] } },
{ "type": "Feature", "properties": { "markername": "CENTRO RICREATIVO DIURNO - VIA BRIANTEA", "id": 6503, "address": "VIA BRIANTEA 4, COMO" }, "geometry": { "type": "Point", "coordinates": [ 9.09521, 45.80654 ] } },
{ "type": "Feature", "properties": { "markername": "SCUOLA PRIMARIA DON MILANI", "id": 6520, "address": "VIA BARANZATE 8, NOVATE MILANESE" }, "geometry": { "type": "Point", "coordinates": [ 9.13181, 45.53082 ] } },
{ "type": "Feature", "properties": { "markername": "SCUOLA INFANZIA COLLODI", "id": 6524, "address": "VIA BARANZATE 6, NOVATE MILANESE" }, "geometry": { "type": "Point", "coordinates": [ 9.13402, 45.53097 ] } },
{ "type": "Feature", "properties": { "markername": "C.R.D. CENTRO ESTIVO", "id": 6542, "address": "VIA V GIORNATE 1, SOLARO" }, "geometry": { "type": "Point", "coordinates": [ 9.0867, 45.61224 ] } },
{ "type": "Feature", "properties": { "markername": "C.R.D. ROSMINI", "id": 6569, "address": "VIA DIAZ ARMANDO  44, BOLLATE" }, "geometry": { "type": "Point", "coordinates": [ 9.11991, 45.54074 ] } },
{ "type": "Feature", "properties": { "markername": "SCUOLA PRIMARIA GALLI", "id": 6583, "address": "VIA PODGORA 161, SESTO SAN GIOVANNI" }, "geometry": { "type": "Point", "coordinates": [ 9.23035, 45.54211 ] } },
{ "type": "Feature", "properties": { "markername": "CENTRO RICREATIVO DIURNO C.R.D. TRIANGIA", "id": 6653, "address": "FRAZIONE TRIANGIA, SONDRIO" }, "geometry": { "type": "Point", "coordinates": [ 9.85445, 46.1753 ] } },
{ "type": "Feature", "properties": { "markername": "SUMMER CAMP", "id": 6655, "address": "VIA CENTRO SPORTIVO, CESATE" }, "geometry": { "type": "Point", "coordinates": [ 9.08124, 45.60078 ] } },
{ "type": "Feature", "properties": { "markername": "CENTRO RICREATIVO DIURNO ESTIVO", "id": 6658, "address": "VIA DANTE ALIGHIERI 4, LACCHIARELLA" }, "geometry": { "type": "Point", "coordinates": [ 9.13977, 45.32417 ] } },
{ "type": "Feature", "properties": { "markername": "C.R.D. SCUOLA PRIMARIA MANZONI", "id": 6711, "address": "VIA CORRIDORI 38, PADERNO DUGNANO" }, "geometry": { "type": "Point", "coordinates": [ 9.1437, 45.57354 ] } },
{ "type": "Feature", "properties": { "markername": "CENTRO ESTIVO PARROCCHIA SANTA MARGHERITA", "id": 6715, "address": "VIA COLOMBO, ALBESE CON CASSANO" }, "geometry": { "type": "Point", "coordinates": [ 9.16809, 45.79586 ] } },
{ "type": "Feature", "properties": { "markername": "CENTRO RICREATIVO PER MINORI - VIA MAIOCCHI", "id": 6747, "address": "VIA MAIOCCHI 6, COMO" }, "geometry": { "type": "Point", "coordinates": [ 9.10864, 45.79772 ] } },
{ "type": "Feature", "properties": { "markername": "CENTRO RICREATIVO PER MINORI", "id": 6760, "address": "VIA ACQUANERA, COMO" }, "geometry": { "type": "Point", "coordinates": [ 9.09284, 45.77904 ] } },
{ "type": "Feature", "properties": { "markername": "C.R.D. SCUOLA ELEMENTARE ESTATE INSIEME", "id": 6792, "address": "VIA CERESIO, GARBAGNATE MILANESE" }, "geometry": { "type": "Point", "coordinates": [ 9.07163, 45.56639 ] } },
{ "type": "Feature", "properties": { "markername": "CENTRO RICREATIVO DIURNO - VIA SINIGAGLIA", "id": 6820, "address": "VIA SINIGAGLIA 10, COMO" }, "geometry": { "type": "Point", "coordinates": [ 9.06999, 45.81286 ] } },
{ "type": "Feature", "properties": { "markername": "CENTRO DI AGGREGAZIONE GIOVANILE ALADINO", "id": 6842, "address": "VIA PISA 37, SESTO SAN GIOVANNI" }, "geometry": { "type": "Point", "coordinates": [ 9.25735, 45.53168 ] } },
{ "type": "Feature", "properties": { "markername": "CENTRO RICREATIVO DIURNO LUCA MAURI - C\/O SCUOLA MATERNA", "id": 6860, "address": "VIA TIBALDI, COMO" }, "geometry": { "type": "Point", "coordinates": [ 9.06582, 45.83361 ] } },
{ "type": "Feature", "properties": { "markername": "COMUNE DI NOVIGLIO", "id": 6877, "address": "PIAZZA ROMA 1, NOVIGLIO" }, "geometry": { "type": "Point", "coordinates": [ 9.0709, 45.35755 ] } },
{ "type": "Feature", "properties": { "markername": "CENTRO RICREATIVO DIURNO - VIA SEGANTINI", "id": 6883, "address": "VIA SEGANTINI 49, COMO" }, "geometry": { "type": "Point", "coordinates": [ 9.04331, 45.83593 ] } },
{ "type": "Feature", "properties": { "markername": "CENTRO ESTIVO INTERCOMUNALE \"ESTATE CON IL PICCOLO PRINCIPE\"", "id": 6935, "address": "VIA RIMEMBRANZE 6, MOLTRASIO" }, "geometry": { "type": "Point", "coordinates": [ 9.09818, 45.86068 ] } },
{ "type": "Feature", "properties": { "markername": "C.R.D. VIA VENEZIA", "id": 6941, "address": "VIA VENEZIA, CESATE" }, "geometry": { "type": "Point", "coordinates": [ 9.07011, 45.58926 ] } },
{ "type": "Feature", "properties": { "markername": "C.R.D. SCUOLA ELEMENTARE CURIEL", "id": 7022, "address": "VIA TRIESTE 99, PADERNO DUGNANO" }, "geometry": { "type": "Point", "coordinates": [ 9.16034, 45.5576 ] } },
{ "type": "Feature", "properties": { "markername": "C.R.D. VIA BELLINI", "id": 7078, "address": "VIA BELLINI 40, CESATE" }, "geometry": { "type": "Point", "coordinates": [ 9.07328, 45.59463 ] } },
{ "type": "Feature", "properties": { "markername": "CENTRO RICREATIVO PER MINORI", "id": 7145, "address": "VIA MONTELUNGO 18, COMO" }, "geometry": { "type": "Point", "coordinates": [ 9.0952, 45.79204 ] } },
{ "type": "Feature", "properties": { "markername": "SCUOLA INFANZIA MARX", "id": 7148, "address": "VIA MARX CARLO  245, SESTO SAN GIOVANNI" }, "geometry": { "type": "Point", "coordinates": [ 9.2485, 45.52381 ] } },
{ "type": "Feature", "properties": { "markername": "C.R.D.E. SCUOLA INFANZIA SAURO", "id": 7163, "address": "VIA SALVO D'ACQUISTO 1, BARANZATE" }, "geometry": { "type": "Point", "coordinates": [ 9.11736, 45.53065 ] } },
{ "type": "Feature", "properties": { "markername": "COMUNE DI CASARILE", "id": 7164, "address": "PIAZZA COMUNALE 4, CASARILE" }, "geometry": { "type": "Point", "coordinates": [ 9.1057, 45.31704 ] } },
{ "type": "Feature", "properties": { "markername": "C.A.G. CIAO RAGAZZI", "id": 7229, "address": "VIA MASCAGNI PIETRO  10, PADERNO DUGNANO" }, "geometry": { "type": "Point", "coordinates": [ 9.18458, 45.56866 ] } },
{ "type": "Feature", "properties": { "markername": "CENTRO RICREATIVO DIURNO RASCHI", "id": 7269, "address": "VIA ROSSELLI, COMO" }, "geometry": { "type": "Point", "coordinates": [ 9.07501, 45.8127 ] } },
{ "type": "Feature", "properties": { "markername": "C.R.D. SCUOLA MATERNA GROANE", "id": 7271, "address": "VIA FOSCOLO UGO, GARBAGNATE MILANESE" }, "geometry": { "type": "Point", "coordinates": [ 9.0779, 45.58404 ] } },
{ "type": "Feature", "properties": { "markername": "C.R.D. GESU' BAMBINO", "id": 7344, "address": "VIA OSPITALETTO 1, BOLLATE" }, "geometry": { "type": "Point", "coordinates": [ 9.14226, 45.54688 ] } },
{ "type": "Feature", "properties": { "markername": "C.R.D. SCUOLA DELL'INFANZIA BACHELET", "id": 7393, "address": "VIA VERDI GIUSEPPE  25, BOLLATE" }, "geometry": { "type": "Point", "coordinates": [ 9.10772, 45.54781 ] } },
{ "type": "Feature", "properties": { "markername": "C.A.G. PASSPARTOUT", "id": 7419, "address": "VIA GALIMBERTI CARLO  1, BOLLATE" }, "geometry": { "type": "Point", "coordinates": [ 9.10112, 45.54165 ] } },
{ "type": "Feature", "properties": { "markername": "C.R.D. CENTRO SPORTIVO COMUNALE", "id": 7447, "address": "VIA DI VITTORIO GIUSEPPE  2, SENAGO" }, "geometry": { "type": "Point", "coordinates": [ 9.13214, 45.57026 ] } },
{ "type": "Feature", "properties": { "markername": "SCUOLA ELEM. CALVINO", "id": 7457, "address": "VIA BRODOLINI G.  45, NOVATE MILANESE" }, "geometry": { "type": "Point", "coordinates": [ 9.13941, 45.53867 ] } }
]
}
