{
"type": "FeatureCollection",
"crs": { "type": "name", "properties": { "name": "urn:ogc:def:crs:OGC:1.3:CRS84" } },
                                                                                
"features":
[{
	"geometry": {
		"type": "Point",
		"coordinates": [10.16651418, 46.21897788]
	},
	"type": "Feature",
	"properties": {
		"markername": "SER.T DISTRETTO DI TIRANO",
		"address": "VIALE CAPPUCCINI, Tirano, SO",
		"telefono": "0342/707322"
	}
}, {
	"geometry": {
		"type": "Point",
		"coordinates": [9.239151, 46.023690]
	},
	"type": "Feature",
	"properties": {
		"markername": "SERT SEDE EROGATIVA TOSSICO/ALCOL DIPENDENZE",
		"address": "VIA DEI CIPRESSI ANG. VIA DIAZ, Menaggio, CO"
	}
}, {
	"geometry": {
		"type": "Point",
		"coordinates": [8.84697955, 45.79940607]
	},
	"type": "Feature",
	"properties": {
		"markername": "VARESE",
		"address": "VIA OTTORINO ROSSI  9, Varese, VA",
		"telefono": "0332/277410"
	}
}, {
	"geometry": {
		"type": "Point",
		"coordinates": [9.02151383, 45.62877801]
	},
	"type": "Feature",
	"properties": {
		"markername": "SARONNO",
		"address": "VIA VARESE  196, Saronno, VA",
		"telefono": "02/9626478"
	}
}, {
	"geometry": {
		"type": "Point",
		"coordinates": [9.0838297, 45.80530085]
	},
	"type": "Feature",
	"properties": {
		"markername": "SERT SEDE EROGATIVA TOSSICO/ALCOL DIPENDENZE",
		"address": "VIA CADORNA, Como, CO",
		"telefono": "031/590641"
	}
}, {
	"geometry": {
		"type": "Point",
		"coordinates": [8.6672298, 45.8927328]
	},
	"type": "Feature",
	"properties": {
		"markername": "CITTIGLIO",
		"address": "VIA MARCONI  40, Cittiglio, VA",
		"telefono": "0332/604675"
	}
}, {
	"geometry": {
		"type": "Point",
		"coordinates": [8.79012754, 45.66465731]
	},
	"type": "Feature",
	"properties": {
		"markername": "GALLARATE",
		"address": "VIA CAVALLOTTI  21, Gallarate, VA",
		"telefono": "0331/777895"
	}
}, {
	"geometry": {
		"type": "Point",
		"coordinates": [8.98037716, 45.73315011]
	},
	"type": "Feature",
	"properties": {
		"markername": "SERT SEDE EROGATIVA TOSSICODIPENDENZE",
		"address": "VIA NAZARIO SAURO, Appiano Gentile, CO"
	}
}, {
	"geometry": {
		"type": "Point",
		"coordinates": [9.40044514, 46.32152686]
	},
	"type": "Feature",
	"properties": {
		"markername": "SER.T DISTRETTO DI CHIAVENNA",
		"address": "VIA G.B. CERLETTI, Chiavenna, SO",
		"telefono": "0343/67291"
	}
}, {
	"geometry": {
		"type": "Point",
		"coordinates": [8.84767921, 45.58499287]
	},
	"type": "Feature",
	"properties": {
		"markername": "BUSTO ARSIZIO",
		"address": "VIA NOVARA  48, Busto Arsizio, VA",
		"telefono": "0331/353759"
	}
}, {
	"geometry": {
		"type": "Point",
		"coordinates": [9.18103258, 45.69287047]
	},
	"type": "Feature",
	"properties": {
		"markername": "SERT SEDE EROGATIVA TOSSICO/ALCOL DIPENDENZE",
		"address": "VIA CESARE BATTISTI, Mariano Comense, CO"
	}
}, {
	"geometry": {
		"type": "Point",
		"coordinates": [10.3761172, 46.4675071]
	},
	"type": "Feature",
	"properties": {
		"markername": "SER.T DISTRETTO DI BORMIO",
		"address": "VICOLO DEL GINNASIO, Bormio, SO",
		"telefono": "0342/900143"
	}
}, {
	"geometry": {
		"type": "Point",
		"coordinates": [9.228899, 45.802711]
	},
	"type": "Feature",
	"properties": {
		"markername": "SERT SEDE EROGATIVA TOSSICO/ALCOL DIPENDENZE",
		"address": "VIA TRIESTE (ANG. VIA PREALPI)  17, Erba, CO"
	}
}, {
	"geometry": {
		"type": "Point",
		"coordinates": [9.56988281, 46.13658538]
	},
	"type": "Feature",
	"properties": {
		"markername": "SER.T DISTRETTO DI MORBEGNO",
		"address": "VIA MARTINELLI, Morbegno, SO",
		"telefono": "0342/643255"
	}
}, {
	"geometry": {
		"type": "Point",
		"coordinates": [9.11729096, 45.52402295]
	},
	"type": "Feature",
	"properties": {
		"markername": "NUCLEO OPERATIVO ALCOLOGIA",
		"address": "VIA PRIMO MAGGIO  30, Baranzate, MI"
	}
}, {
	"geometry": {
		"type": "Point",
		"coordinates": [9.084655, 45.793397]
	},
	"type": "Feature",
	"properties": {
		"markername": "SERT SEDE EROGATIVA TOSSICO/ALCOL DIPENDENZE",
		"address": "VIA SANTA BRIGIDA, Como, CO"
	}
}, {
	"geometry": {
		"type": "Point",
		"coordinates": [8.899971, 45.722819]
	},
	"type": "Feature",
	"properties": {
		"markername": "TRADATE",
		"address": "VIA A. DA TRADATE  3, Tradate, VA",
		"telefono": "0331/811524"
	}
}, {
	"geometry": {
		"type": "Point",
		"coordinates": [9.89053633, 46.17104498]
	},
	"type": "Feature",
	"properties": {
		"markername": "SER.T DISTRETTO DI SONDRIO",
		"address": "VIA STELVIO, Sondrio, SO",
		"telefono": "0342/212720"
	}
}, {
	"geometry": {
		"type": "Point",
		"coordinates": [8.85710292, 45.85927428]
	},
	"type": "Feature",
	"properties": {
		"markername": "ARCISATE",
		"address": "VIA MATTEOTTI  20, Arcisate, VA",
		"telefono": "0332/476339"
	}
}, {
	"geometry": {
		"type": "Point",
		"coordinates": [9.045684, 45.548467]
	},
	"type": "Feature",
	"properties": {
		"markername": "SER.T. RHO",
		"address": "VIA GIUSEPPE CASATI 45, Rho, MI"
	}
}, {
	"geometry": {
		"type": "Point",
		"coordinates": [9.0455513, 45.54866251]
	},
	"type": "Feature",
	"properties": {
		"markername": "ASL DELLA PROVINCIA DI MILANO",
		"address": "VIA SAVONAROLA 3, Legnano, MI"
	}
},{
	"geometry": {
		"type": "Point",
		"coordinates": [9.2244166, 45.53485234]
	},
	"type": "Feature",
	"properties": {
		"markername": "NOA SESTO SAN GIOVANNI",
		"address": "VIA MATTEOTTI   13, Sesto San Giovanni, MI"
	}
}]}